[{"stock_code":"000001","stock_name":"平安银行","company_name":"平安银行股份有限公司","registered_address":"广东省深圳市罗湖区深南东路5047号","lng":"114.11391965316086","lat":"22.54682918587866","stock_exchange":"SZ"},{"stock_code":"000002","stock_name":"万科Ａ","company_name":"万科企业股份有限公司","registered_address":"广东省深圳市盐田区大梅沙环梅路33号万科中心","lng":"114.30954499146242","lat":"22.60248180675069","stock_exchange":"SZ"},{"stock_code":"000004","stock_name":"国农科技","company_name":"深圳中国农大科技股份有限公司","registered_address":"广东省深圳市南山区中心路（深圳湾段）3333号中铁南方总部大厦503室","lng":"113.94758592405444","lat":"22.517078551389393","stock_exchange":"SZ"},{"stock_code":"000005","stock_name":"世纪星源","company_name":"深圳世纪星源股份有限公司","registered_address":"广东省深圳市人民南路发展中心大厦13层","lng":"114.12564963667572","lat":"22.54458152936374","stock_exchange":"SZ"},{"stock_code":"000006","stock_name":"深振业Ａ","company_name":"深圳市振业(集团)股份有限公司","registered_address":"广东省深圳市罗湖区宝安南路2014号振业大厦A座31层","lng":"114.1178445179158","lat":"22.550335488894","stock_exchange":"SZ"},{"stock_code":"000007","stock_name":"全新好","company_name":"深圳市全新好股份有限公司","registered_address":"广东省深圳市福田区梅林街道梅康路8号理想时代大厦6楼","lng":"114.06783173415599","lat":"22.57665568248443","stock_exchange":"SZ"},{"stock_code":"000008","stock_name":"神州高铁","company_name":"神州高铁技术股份有限公司","registered_address":"北京市海淀区高梁桥斜街59号院1号楼16层1606","lng":"116.35530492217264","lat":"39.950220993627084","stock_exchange":"SZ"},{"stock_code":"000010","stock_name":"美丽生态","company_name":"深圳美丽生态股份有限公司","registered_address":"广东省深圳市宝安区西乡街道宝安桃花源科技创新园主园A栋孵化大楼321-322室","lng":"113.8922518093198","lat":"22.61552708843783","stock_exchange":"SZ"},{"stock_code":"000011","stock_name":"深物业A","company_name":"深圳市物业发展(集团)股份有限公司","registered_address":"广东省深圳市人民南路国贸大厦39、42层","lng":"114.12617565922963","lat":"22.546849028511147","stock_exchange":"SZ"},{"stock_code":"000012","stock_name":"南玻Ａ","company_name":"中国南玻集团股份有限公司","registered_address":"广东省深圳市蛇口工业六路一号南玻大厦","lng":"113.92504597907008","lat":"22.49872459737095","stock_exchange":"SZ"},{"stock_code":"000014","stock_name":"沙河股份","company_name":"沙河实业股份有限公司","registered_address":"广东省深圳市南山区白石路2222号沙河世纪楼","lng":"113.97287020943867","lat":"22.537696667070595","stock_exchange":"SZ"},{"stock_code":"000016","stock_name":"深康佳Ａ","company_name":"康佳集团股份有限公司","registered_address":"广东省深圳市南山区粤海街道科技园科技南十二路28号康佳研发大厦15-24层","lng":"113.96364264187025","lat":"22.545096148674315","stock_exchange":"SZ"},{"stock_code":"000017","stock_name":"深中华A","company_name":"深圳中华自行车(集团)股份有限公司","registered_address":"广东省深圳市布心路三零零八号","lng":"114.15058120779142","lat":"22.578486623299135","stock_exchange":"SZ"},{"stock_code":"000018","stock_name":"神州长城","company_name":"神州长城股份有限公司","registered_address":"广东省深圳市大鹏新区葵涌街道白石岗葵鹏路26号","lng":"114.4319139646022","lat":"22.62235342188192","stock_exchange":"SZ"},{"stock_code":"000019","stock_name":"深深宝Ａ","company_name":"深圳市深宝实业股份有限公司","registered_address":"广东省深圳市南山区粤海街道学府路科技园南区软件产业基地4栋B座8层","lng":"113.94470463428469","lat":"22.529538095488824","stock_exchange":"SZ"},{"stock_code":"000020","stock_name":"深华发Ａ","company_name":"深圳中恒华发股份有限公司","registered_address":"广东省深圳市福田区华发北路411幢","lng":"114.09558911748977","lat":"22.550711096708604","stock_exchange":"SZ"},{"stock_code":"000021","stock_name":"深科技","company_name":"深圳长城开发科技股份有限公司","registered_address":"广东省深圳市福田区彩田路7006号","lng":"114.07483399955309","lat":"22.56758800015695","stock_exchange":"SZ"},{"stock_code":"000022","stock_name":"深赤湾Ａ","company_name":"深圳赤湾港航股份有限公司","registered_address":"广东省深圳市赤湾","lng":"113.89328599341918","lat":"22.480513822408227","stock_exchange":"SZ"},{"stock_code":"000023","stock_name":"深天地Ａ","company_name":"深圳市天地(集团)股份有限公司","registered_address":"广东省深圳市高新技术产业园北区朗山路东物商业大楼10楼","lng":"113.95733489329321","lat":"22.56235965122284","stock_exchange":"SZ"},{"stock_code":"000025","stock_name":"特力Ａ","company_name":"深圳市特力(集团)股份有限公司","registered_address":"广东省深圳市深南中路中核大厦","lng":"114.10154526659541","lat":"22.5471931914312","stock_exchange":"SZ"},{"stock_code":"000026","stock_name":"飞亚达Ａ","company_name":"飞亚达(集团)股份有限公司","registered_address":"广东省深圳市南山区高新南一道飞亚达科技大厦","lng":"113.9621991439671","lat":"22.545145397555515","stock_exchange":"SZ"},{"stock_code":"000027","stock_name":"深圳能源","company_name":"深圳能源集团股份有限公司","registered_address":"广东省深圳市福田区金田路2026号能源大厦北塔楼9，29-31，34-41层","lng":"114.07051652678194","lat":"22.536311300505144","stock_exchange":"SZ"},{"stock_code":"000028","stock_name":"国药一致","company_name":"国药集团一致药业股份有限公司","registered_address":"广东省深圳市福田区八卦四路15号一致药业大楼","lng":"114.10835409357897","lat":"22.569690309063464","stock_exchange":"SZ"},{"stock_code":"000029","stock_name":"深深房Ａ","company_name":"深圳经济特区房地产(集团)股份有限公司","registered_address":"广东省深圳市人民南路3005号深房广场47楼","lng":"114.12453523389433","lat":"22.547550279566035","stock_exchange":"SZ"},{"stock_code":"000030","stock_name":"富奥股份","company_name":"富奥汽车零部件股份有限公司","registered_address":"吉林省长春市汽车经济技术开发区东风南街777号","lng":"125.23344550930558","lat":"43.852172367528794","stock_exchange":"SZ"},{"stock_code":"000031","stock_name":"中粮地产","company_name":"中粮地产(集团)股份有限公司","registered_address":"广东省深圳市宝安区新安街道3区龙井二路3号中粮地产集团中心第1层101室","lng":"113.91496448048755","lat":"22.56288614110863","stock_exchange":"SZ"},{"stock_code":"000032","stock_name":"深桑达Ａ","company_name":"深圳市桑达实业股份有限公司","registered_address":"广东省深圳市南山区科技园科技路1号桑达科技大厦15-17楼","lng":"113.9556368964561","lat":"22.54703416038018","stock_exchange":"SZ"},{"stock_code":"000034","stock_name":"神州数码","company_name":"神州数码集团股份有限公司","registered_address":"广东省深圳市南山区粤海街道科发路8号金融基地1栋11楼E1","lng":"113.95351854923369","lat":"22.549607777550342","stock_exchange":"SZ"},{"stock_code":"000035","stock_name":"中国天楹","company_name":"中国天楹股份有限公司","registered_address":"江苏省海安县城黄海大道（西）268号","lng":"120.47100363483372","lat":"32.53550485679785","stock_exchange":"SZ"},{"stock_code":"000036","stock_name":"华联控股","company_name":"华联控股股份有限公司","registered_address":"广东省深圳市深南中路2008号华联大厦11层(1103-1109室)","lng":"114.10045445690992","lat":"22.54723824561826","stock_exchange":"SZ"},{"stock_code":"000037","stock_name":"深南电A","company_name":"深圳南山热电股份有限公司","registered_address":"广东省深圳市南山区月亮湾大道2097号","lng":"113.90406125065192","lat":"22.514174872178586","stock_exchange":"SZ"},{"stock_code":"000038","stock_name":"深大通","company_name":"深圳大通实业股份有限公司","registered_address":"广东省深圳市南山区沙河街道恩平街华侨城东部工业区东E4栋","lng":"113.998706469423","lat":"22.543179303061407","stock_exchange":"SZ"},{"stock_code":"000039","stock_name":"中集集团","company_name":"中国国际海运集装箱(集团)股份有限公司","registered_address":"广东省深圳市南山蛇口工业区港湾大道2号中集研发中心8楼","lng":"113.91819409450682","lat":"22.483273747248393","stock_exchange":"SZ"},{"stock_code":"000040","stock_name":"东旭蓝天","company_name":"东旭蓝天新能源股份有限公司","registered_address":"广东省深圳市罗湖区东门中路1011号鸿基大厦25-27楼","lng":"114.1280336739221","lat":"22.551180099559858","stock_exchange":"SZ"},{"stock_code":"000042","stock_name":"中洲控股","company_name":"深圳市中洲投资控股股份有限公司","registered_address":"广东省深圳市南山区海德一道88号中洲控股金融中心39层","lng":"113.92161768951615","lat":"22.49056752098716","stock_exchange":"SZ"},{"stock_code":"000043","stock_name":"中航善达","company_name":"中航善达股份有限公司","registered_address":"广东省深圳市福田区振华路163号飞亚达大厦六楼","lng":"114.0904023068667","lat":"22.549983300085515","stock_exchange":"SZ"},{"stock_code":"000045","stock_name":"深纺织Ａ","company_name":"深圳市纺织(集团)股份有限公司","registered_address":"广东省深圳市福田区华强北路3号深纺大厦6楼","lng":"114.09204988630708","lat":"22.550622320634243","stock_exchange":"SZ"},{"stock_code":"000046","stock_name":"泛海控股","company_name":"泛海控股股份有限公司","registered_address":"北京市东城区建国门内大街28号民生金融中心C座22层","lng":"116.42598872003911","lat":"39.913294410394336","stock_exchange":"SZ"},{"stock_code":"000048","stock_name":"*ST康达","company_name":"深圳市康达尔(集团)股份有限公司","registered_address":"广东省深圳市罗湖区深南东路1086号集浩大厦二、三楼","lng":"114.14185237225554","lat":"22.55281380705262","stock_exchange":"SZ"},{"stock_code":"000049","stock_name":"德赛电池","company_name":"深圳市德赛电池科技股份有限公司","registered_address":"广东省深圳市南山区高新科技园南区高新南一道德赛科技大厦26楼","lng":"113.96079377733619","lat":"22.541161699230237","stock_exchange":"SZ"},{"stock_code":"000050","stock_name":"深天马Ａ","company_name":"天马微电子股份有限公司","registered_address":"广东省深圳市龙华区民治街道北站社区留仙大道天马大厦1918","lng":"113.9893763827383","lat":"22.590497515632176","stock_exchange":"SZ"},{"stock_code":"000055","stock_name":"方大集团","company_name":"方大集团股份有限公司","registered_address":"广东省深圳市高新区科技南十二路方大大厦","lng":"113.96305083281065","lat":"22.543706679366277","stock_exchange":"SZ"},{"stock_code":"000056","stock_name":"皇庭国际","company_name":"深圳市皇庭国际企业股份有限公司","registered_address":"广东省深圳市福田区金田路2028号皇岗商务中心58楼03单元","lng":"114.07047060720089","lat":"22.53710414024244","stock_exchange":"SZ"},{"stock_code":"000058","stock_name":"深赛格","company_name":"深圳赛格股份有限公司","registered_address":"广东省深圳市福田区华强北路群星广场A座三十一楼","lng":"114.093727991067","lat":"22.55408218388542","stock_exchange":"SZ"},{"stock_code":"000059","stock_name":"华锦股份","company_name":"北方华锦化学工业股份有限公司","registered_address":"辽宁省盘锦市双台子区红旗大街","lng":"122.03660108379033","lat":"41.19932510142081","stock_exchange":"SZ"},{"stock_code":"000060","stock_name":"中金岭南","company_name":"深圳市中金岭南有色金属股份有限公司","registered_address":"广东省深圳市福田区车公庙深南大道6013号中国有色大厦24-26楼","lng":"114.03330237322895","lat":"22.541499782726607","stock_exchange":"SZ"},{"stock_code":"000061","stock_name":"农产品","company_name":"深圳市农产品股份有限公司","registered_address":"广东省深圳市罗湖区布吉路1019号农产品批发市场第一层","lng":"114.12504535554243","lat":"22.585753974974832","stock_exchange":"SZ"},{"stock_code":"000062","stock_name":"深圳华强","company_name":"深圳华强实业股份有限公司","registered_address":"广东省深圳市福田区华强北路华强广场A座5楼","lng":"114.09253863457218","lat":"22.548393803322426","stock_exchange":"SZ"},{"stock_code":"000063","stock_name":"中兴通讯","company_name":"中兴通讯股份有限公司","registered_address":"广东省深圳市南山区高新技术产业园科技南路中兴通讯大厦","lng":"113.94938556326167","lat":"22.541232876397853","stock_exchange":"SZ"},{"stock_code":"000065","stock_name":"北方国际","company_name":"北方国际合作股份有限公司","registered_address":"北京市丰台区南四环西路188号总部基地12区47号楼3层(301、302)","lng":"116.29233999406175","lat":"39.826203088255106","stock_exchange":"SZ"},{"stock_code":"000066","stock_name":"中国长城","company_name":"中国长城科技集团股份有限公司","registered_address":"广东省深圳南山区科技工业园长城计算机大厦","lng":"113.95282571763478","lat":"22.548654320814897","stock_exchange":"SZ"},{"stock_code":"000068","stock_name":"华控赛格","company_name":"深圳华控赛格股份有限公司","registered_address":"广东省深圳市大工业区兰竹大道以北CH3主厂房","lng":"114.11215735471704","lat":"22.563270281132294","stock_exchange":"SZ"},{"stock_code":"000069","stock_name":"华侨城Ａ","company_name":"深圳华侨城股份有限公司","registered_address":"广东省深圳市南山区华侨城","lng":"113.99009219119554","lat":"22.542435485609882","stock_exchange":"SZ"},{"stock_code":"000070","stock_name":"特发信息","company_name":"深圳市特发信息股份有限公司","registered_address":"广东省深圳市南山区高新区中区科丰路2号特发信息港大厦B栋18楼","lng":"113.95635411794792","lat":"22.55572224922059","stock_exchange":"SZ"},{"stock_code":"000078","stock_name":"海王生物","company_name":"深圳市海王生物工程股份有限公司","registered_address":"广东省深圳市南山区科技园科技中三路1号海王银河科技大厦24楼","lng":"113.94821865631984","lat":"22.546202793723566","stock_exchange":"SZ"},{"stock_code":"000088","stock_name":"盐田港","company_name":"深圳市盐田港股份有限公司","registered_address":"广东省深圳市盐田区盐田港海港大厦17-20层","lng":"114.26035834514425","lat":"22.575246676837477","stock_exchange":"SZ"},{"stock_code":"000089","stock_name":"深圳机场","company_name":"深圳市机场股份有限公司","registered_address":"广东省深圳市宝安区宝安机场T3商务区配套写字楼A栋","lng":"113.83683390513875","lat":"22.646488376353975","stock_exchange":"SZ"},{"stock_code":"000090","stock_name":"天健集团","company_name":"深圳市天健(集团)股份有限公司","registered_address":"广东省深圳市福田区滨河大道5020号证券大厦21楼","lng":"114.07716774426721","lat":"22.535672985212308","stock_exchange":"SZ"},{"stock_code":"000096","stock_name":"广聚能源","company_name":"深圳市广聚能源股份有限公司","registered_address":"广东省深圳市南山区海德三道天利中央商务广场22楼","lng":"113.94061218884032","lat":"22.524102386038066","stock_exchange":"SZ"},{"stock_code":"000099","stock_name":"中信海直","company_name":"中信海洋直升机股份有限公司","registered_address":"广东省深圳市罗湖区解放西路188号","lng":"114.11752464300177","lat":"22.549852845072984","stock_exchange":"SZ"},{"stock_code":"000100","stock_name":"TCL集团","company_name":"TCL集团股份有限公司","registered_address":"广东省惠州市仲恺高新技术开发区十九号小区","lng":"114.35507668418721","lat":"23.033339138068875","stock_exchange":"SZ"},{"stock_code":"000150","stock_name":"宜华健康","company_name":"宜华健康医疗股份有限公司","registered_address":"广东省汕头市澄海区文冠路北侧","lng":"116.76100628352815","lat":"23.472615498086366","stock_exchange":"SZ"},{"stock_code":"000151","stock_name":"中成股份","company_name":"中成进出口股份有限公司","registered_address":"北京市丰台区南四环西路188号二区8号楼","lng":"116.29324583006682","lat":"39.83468890555068","stock_exchange":"SZ"},{"stock_code":"000153","stock_name":"丰原药业","company_name":"安徽丰原药业股份有限公司","registered_address":"安徽省无为县北门外大街108号","lng":"117.93291777235936","lat":"31.33011147910956","stock_exchange":"SZ"},{"stock_code":"000155","stock_name":"川化股份","company_name":"川化股份有限公司","registered_address":"四川省成都市青白江区大弯镇团结路311号","lng":"104.15996393568695","lat":"30.809220494792026","stock_exchange":"SZ"},{"stock_code":"000156","stock_name":"华数传媒","company_name":"华数传媒控股股份有限公司","registered_address":"浙江省杭州市滨江区江南大道3850号创新大厦15楼1505室","lng":"120.16793512387821","lat":"30.189460858665274","stock_exchange":"SZ"},{"stock_code":"000157","stock_name":"中联重科","company_name":"中联重科股份有限公司","registered_address":"湖南省长沙市银盆南路361号","lng":"112.96026441540057","lat":"28.227082118444322","stock_exchange":"SZ"},{"stock_code":"000158","stock_name":"常山北明","company_name":"石家庄常山北明科技股份有限公司","registered_address":"河北省石家庄市和平东路183号","lng":"114.52610733085898","lat":"38.05976968616922","stock_exchange":"SZ"},{"stock_code":"000159","stock_name":"国际实业","company_name":"新疆国际实业股份有限公司","registered_address":"新疆维吾尔自治区乌鲁木齐市高新区北京南路358号大成国际9楼","lng":"87.57659283061439","lat":"43.85975470937914","stock_exchange":"SZ"},{"stock_code":"000166","stock_name":"申万宏源","company_name":"申万宏源集团股份有限公司","registered_address":"新疆乌鲁木齐市高新区北京南路358号大成国际大厦20楼2001室","lng":"87.57643638100812","lat":"43.85958212251867","stock_exchange":"SZ"},{"stock_code":"000301","stock_name":"东方市场","company_name":"江苏吴江中国东方丝绸市场股份有限公司","registered_address":"江苏省吴江市盛泽镇市场路丝绸股份大厦","lng":"120.65820204287182","lat":"30.903551023081757","stock_exchange":"SZ"},{"stock_code":"000333","stock_name":"美的集团","company_name":"美的集团股份有限公司","registered_address":"广东省佛山市顺德区北滘镇美的大道6号美的总部大楼B区26-28楼","lng":"113.22616306185954","lat":"22.939874119778043","stock_exchange":"SZ"},{"stock_code":"000338","stock_name":"潍柴动力","company_name":"潍柴动力股份有限公司","registered_address":"山东省潍坊市高新技术产业开发区福寿东街197号甲","lng":"119.21385148380158","lat":"36.728738107562585","stock_exchange":"SZ"},{"stock_code":"000400","stock_name":"许继电气","company_name":"许继电气股份有限公司","registered_address":"河南省许昌市许继大道1298号","lng":"113.81259213774531","lat":"34.029544964105874","stock_exchange":"SZ"},{"stock_code":"000401","stock_name":"冀东水泥","company_name":"唐山冀东水泥股份有限公司","registered_address":"河北省唐山市丰润区林荫路","lng":"118.18120453751835","lat":"39.84013590663198","stock_exchange":"SZ"},{"stock_code":"000402","stock_name":"金融街","company_name":"金融街控股股份有限公司","registered_address":"北京市西城区金城坊街7号","lng":"116.36920143892033","lat":"39.92305261309592","stock_exchange":"SZ"},{"stock_code":"000403","stock_name":"ST生化","company_name":"振兴生化股份有限公司","registered_address":"山西省太原市长治路227号高新国际大厦16层","lng":"112.56799328699451","lat":"37.811780342733464","stock_exchange":"SZ"},{"stock_code":"000404","stock_name":"长虹华意","company_name":"长虹华意压缩机股份有限公司","registered_address":"江西省景德镇市高新区长虹大道1号","lng":"117.14299585791984","lat":"29.26502292765705","stock_exchange":"SZ"},{"stock_code":"000407","stock_name":"胜利股份","company_name":"山东胜利股份有限公司","registered_address":"山东省济南市高新区港兴三路北段济南药谷1号楼B座32层","lng":"117.30558342454974","lat":"36.69510057298044","stock_exchange":"SZ"},{"stock_code":"000408","stock_name":"藏格控股","company_name":"藏格控股股份有限公司","registered_address":"青海省格尔木市昆仑南路15-02号","lng":"94.90992776894993","lat":"36.39805170412372","stock_exchange":"SZ"},{"stock_code":"000410","stock_name":"沈阳机床","company_name":"沈阳机床股份有限公司","registered_address":"辽宁省沈阳经济技术开发区开发大路17甲1号","lng":"123.24066084057142","lat":"41.76690331923357","stock_exchange":"SZ"},{"stock_code":"000411","stock_name":"英特集团","company_name":"浙江英特集团股份有限公司","registered_address":"浙江省杭州市下城区东新路江南巷2号3幢","lng":"120.18657675443144","lat":"30.298269168089792","stock_exchange":"SZ"},{"stock_code":"000413","stock_name":"东旭光电","company_name":"东旭光电科技股份有限公司","registered_address":"河北省石家庄市高新技术产业开发区黄河大道9号","lng":"114.4472848850721","lat":"38.02501546635932","stock_exchange":"SZ"},{"stock_code":"000415","stock_name":"渤海金控","company_name":"渤海金控投资股份有限公司","registered_address":"新疆维吾尔自治区乌鲁木齐市沙依巴克区黄河路93号","lng":"87.60793027438423","lat":"43.79643764203736","stock_exchange":"SZ"},{"stock_code":"000416","stock_name":"民生控股","company_name":"民生控股股份有限公司","registered_address":"山东省青岛市崂山区株州路151号","lng":"120.4743892773347","lat":"36.146846886312545","stock_exchange":"SZ"},{"stock_code":"000417","stock_name":"合肥百货","company_name":"合肥百货大楼集团股份有限公司","registered_address":"安徽省合肥市长江中路150号","lng":"117.29417988615161","lat":"31.86789653169639","stock_exchange":"SZ"},{"stock_code":"000418","stock_name":"小天鹅Ａ","company_name":"无锡小天鹅股份有限公司","registered_address":"江苏省无锡市国家高新技术产业开发区长江南路18号","lng":"120.39670216484797","lat":"31.515093620202755","stock_exchange":"SZ"},{"stock_code":"000419","stock_name":"通程控股","company_name":"长沙通程控股股份有限公司","registered_address":"湖南省长沙市雨花区劳动西路589号","lng":"113.00065499969342","lat":"28.175494001926207","stock_exchange":"SZ"},{"stock_code":"000420","stock_name":"吉林化纤","company_name":"吉林化纤股份有限公司","registered_address":"吉林省吉林市经开区昆仑街216号","lng":"126.47664899905914","lat":"43.99464323102606","stock_exchange":"SZ"},{"stock_code":"000421","stock_name":"南京公用","company_name":"南京公用发展股份有限公司","registered_address":"江苏省南京市建邺区应天大街927号","lng":"118.74008886604435","lat":"32.027691693278136","stock_exchange":"SZ"},{"stock_code":"000422","stock_name":"*ST宜化","company_name":"湖北宜化化工股份有限公司","registered_address":"湖北省宜昌市猇亭大道399号","lng":"111.46659087240171","lat":"30.504299102655462","stock_exchange":"SZ"},{"stock_code":"000423","stock_name":"东阿阿胶","company_name":"东阿阿胶股份有限公司","registered_address":"山东省东阿县阿胶街78号","lng":"116.26551497009237","lat":"36.34868481093649","stock_exchange":"SZ"},{"stock_code":"000425","stock_name":"徐工机械","company_name":"徐工集团工程机械股份有限公司","registered_address":"江苏省徐州经济技术开发区驮蓝山路26号","lng":"117.28015304952866","lat":"34.30617837170691","stock_exchange":"SZ"},{"stock_code":"000426","stock_name":"兴业矿业","company_name":"内蒙古兴业矿业股份有限公司","registered_address":"内蒙古自治区赤峰市新城区玉龙大街路北、天义路西兴业集团办公楼","lng":"118.89231524345989","lat":"42.25992006821304","stock_exchange":"SZ"},{"stock_code":"000428","stock_name":"华天酒店","company_name":"华天酒店集团股份有限公司","registered_address":"湖南省长沙市芙蓉区解放东路300号","lng":"113.00548442126609","lat":"28.19678237886402","stock_exchange":"SZ"},{"stock_code":"000429","stock_name":"粤高速Ａ","company_name":"广东省高速公路发展股份有限公司","registered_address":"广东省广州市白云路85号","lng":"113.28958878384557","lat":"23.125731672955347","stock_exchange":"SZ"},{"stock_code":"000430","stock_name":"张家界","company_name":"张家界旅游集团股份有限公司","registered_address":"湖南省张家界市南庄坪1号花园","lng":"110.47197154731876","lat":"29.135854657005822","stock_exchange":"SZ"},{"stock_code":"000488","stock_name":"晨鸣纸业","company_name":"山东晨鸣纸业集团股份有限公司","registered_address":"山东省寿光市圣城街595号","lng":"118.73546391497366","lat":"36.87876868465979","stock_exchange":"SZ"},{"stock_code":"000498","stock_name":"山东路桥","company_name":"山东高速路桥集团股份有限公司","registered_address":"山东省济南市经五路330号","lng":"116.98580193419124","lat":"36.662815960816225","stock_exchange":"SZ"},{"stock_code":"000501","stock_name":"鄂武商Ａ","company_name":"武汉武商集团股份有限公司","registered_address":"湖北省武汉市江汉区解放大道690号","lng":"114.27860287301947","lat":"30.58440766030803","stock_exchange":"SZ"},{"stock_code":"000502","stock_name":"绿景控股","company_name":"绿景控股股份有限公司","registered_address":"广东省广州市海珠区同福西路131-133号首层01房","lng":"113.25768223965076","lat":"23.108385639002734","stock_exchange":"SZ"},{"stock_code":"000503","stock_name":"国新健康","company_name":"国新健康保障服务集团股份有限公司","registered_address":"海南省海口市文华路18号文华大酒店七层","lng":"110.30638680288868","lat":"20.028060558513722","stock_exchange":"SZ"},{"stock_code":"000504","stock_name":"南华生物","company_name":"南华生物医药股份有限公司","registered_address":"湖南省长沙市天心区城南西路3号财信大厦13楼","lng":"112.99164836856852","lat":"28.188014347186712","stock_exchange":"SZ"},{"stock_code":"000505","stock_name":"京粮控股","company_name":"海南京粮控股股份有限公司","registered_address":"海南省海口市滨海大道珠江广场帝豪大厦29层","lng":"110.32732019584188","lat":"20.03888642734655","stock_exchange":"SZ"},{"stock_code":"000506","stock_name":"中润资源","company_name":"中润资源投资股份有限公司","registered_address":"山东省济南市经十路13777号中润世纪广场17栋","lng":"117.08071867212213","lat":"36.65807284550993","stock_exchange":"SZ"},{"stock_code":"000507","stock_name":"珠海港","company_name":"珠海港股份有限公司","registered_address":"广东省珠海市高栏港经济区榕树湾8号2001-2号办公","lng":"113.21412430379185","lat":"21.980824042355778","stock_exchange":"SZ"},{"stock_code":"000509","stock_name":"华塑控股","company_name":"华塑控股股份有限公司","registered_address":"四川省南充市涪江路117号","lng":"106.08895746700387","lat":"30.797942056129703","stock_exchange":"SZ"},{"stock_code":"000510","stock_name":"金路集团","company_name":"四川金路集团股份有限公司","registered_address":"四川省德阳市泰山南路二段733号银鑫·五洲广场一期21栋22-23层","lng":"104.39619187178451","lat":"31.105747385918185","stock_exchange":"SZ"},{"stock_code":"000513","stock_name":"丽珠集团","company_name":"丽珠医药集团股份有限公司","registered_address":"广东省珠海市金湾区创业北路38号总部大楼","lng":"113.28786249038491","lat":"22.10391597418977","stock_exchange":"SZ"},{"stock_code":"000514","stock_name":"渝开发","company_name":"重庆渝开发股份有限公司","registered_address":"重庆市渝中区重庆村55号2单元39层","lng":"106.55564415770094","lat":"29.559395173214323","stock_exchange":"SZ"},{"stock_code":"000516","stock_name":"国际医学","company_name":"西安国际医学投资股份有限公司","registered_address":"陕西省西安市高新区团结南路16号保障楼5层","lng":"108.88785626160065","lat":"34.23620413132922","stock_exchange":"SZ"},{"stock_code":"000517","stock_name":"荣安地产","company_name":"荣安地产股份有限公司","registered_address":"浙江省宁波市海曙区灵桥路513号(14-12)","lng":"121.56148813391283","lat":"29.869148910000288","stock_exchange":"SZ"},{"stock_code":"000518","stock_name":"四环生物","company_name":"江苏四环生物股份有限公司","registered_address":"江苏省江阴市滨江开发区定山路十号","lng":"120.3153923667989","lat":"31.94525101515426","stock_exchange":"SZ"},{"stock_code":"000519","stock_name":"中兵红箭","company_name":"中兵红箭股份有限公司","registered_address":"湖南省湘潭国家高新技术产业开发区德国工业园莱茵路1号","lng":"112.94632595677324","lat":"27.828998124966976","stock_exchange":"SZ"},{"stock_code":"000520","stock_name":"长航凤凰","company_name":"长航凤凰股份有限公司","registered_address":"湖北省武汉市民权路39号汇江大厦","lng":"114.29976895585243","lat":"30.575695663676775","stock_exchange":"SZ"},{"stock_code":"000521","stock_name":"长虹美菱","company_name":"长虹美菱股份有限公司","registered_address":"安徽省合肥市经济技术开发区莲花路2163号","lng":"117.23782276042293","lat":"31.737648886578683","stock_exchange":"SZ"},{"stock_code":"000523","stock_name":"广州浪奇","company_name":"广州市浪奇实业股份有限公司","registered_address":"广东省广州市天河区黄埔大道东128号","lng":"113.39912976656127","lat":"23.120718630291336","stock_exchange":"SZ"},{"stock_code":"000524","stock_name":"岭南控股","company_name":"广州岭南集团控股股份有限公司","registered_address":"广东省广州市流花路120号","lng":"113.26550147618009","lat":"23.14639161721543","stock_exchange":"SZ"},{"stock_code":"000525","stock_name":"红太阳","company_name":"南京红太阳股份有限公司","registered_address":"江苏省南京市高淳县桠溪镇东风路8号","lng":"119.17970566158706","lat":"31.363549367888083","stock_exchange":"SZ"},{"stock_code":"000526","stock_name":"紫光学大","company_name":"厦门紫光学大股份有限公司","registered_address":"福建省厦门市湖里区寨上长乐路1号","lng":"118.10336290487398","lat":"24.526630727850833","stock_exchange":"SZ"},{"stock_code":"000528","stock_name":"柳工","company_name":"广西柳工机械股份有限公司","registered_address":"广西壮族自治区柳州市柳太路1号","lng":"109.37205926832011","lat":"24.320608746302085","stock_exchange":"SZ"},{"stock_code":"000529","stock_name":"广弘控股","company_name":"广东广弘控股股份有限公司","registered_address":"广东省广州市天河区广州大道北520号","lng":"113.3244402663487","lat":"23.168113675897565","stock_exchange":"SZ"},{"stock_code":"000530","stock_name":"大冷股份","company_name":"大连冷冻机股份有限公司","registered_address":"辽宁省大连市经济技术开发区辽河东路106号","lng":"121.88749243571648","lat":"39.074016593823394","stock_exchange":"SZ"},{"stock_code":"000531","stock_name":"穗恒运Ａ","company_name":"广州恒运企业集团股份有限公司","registered_address":"广东省广州市萝岗区西基工业区西基路","lng":"113.51796085238342","lat":"23.068924803669844","stock_exchange":"SZ"},{"stock_code":"000533","stock_name":"万家乐","company_name":"广东万家乐股份有限公司","registered_address":"广东省佛山市顺德区大良街道顺峰山工业区","lng":"113.28744859881624","lat":"22.803298737907333","stock_exchange":"SZ"},{"stock_code":"000534","stock_name":"万泽股份","company_name":"万泽实业股份有限公司","registered_address":"广东省汕头市珠池路23号光明大厦B幢8楼","lng":"116.7401330626712","lat":"23.378411517065576","stock_exchange":"SZ"},{"stock_code":"000536","stock_name":"华映科技","company_name":"华映科技(集团)股份有限公司","registered_address":"福建省福州市马尾区儒江西路6号","lng":"119.41634965125886","lat":"26.025485429238884","stock_exchange":"SZ"},{"stock_code":"000537","stock_name":"广宇发展","company_name":"天津广宇发展股份有限公司","registered_address":"天津经济技术开发区第三大街16号泰达中心","lng":"117.69701510714741","lat":"39.04161537633128","stock_exchange":"SZ"},{"stock_code":"000538","stock_name":"云南白药","company_name":"云南白药集团股份有限公司","registered_address":"云南省昆明市呈贡区云南白药街3686号","lng":"102.83934839192663","lat":"24.83336467832768","stock_exchange":"SZ"},{"stock_code":"000539","stock_name":"粤电力Ａ","company_name":"广东电力发展股份有限公司","registered_address":"广东省广州市天河东路2号粤电广场南塔33-36楼","lng":"113.34057930308484","lat":"23.133189018885712","stock_exchange":"SZ"},{"stock_code":"000540","stock_name":"中天金融","company_name":"中天金融集团股份有限公司","registered_address":"贵州省贵阳市观山湖区中天路3号","lng":"106.64915333590638","lat":"26.64894696337213","stock_exchange":"SZ"},{"stock_code":"000541","stock_name":"佛山照明","company_name":"佛山电器照明股份有限公司","registered_address":"广东省佛山市禅城区汾江北路64号","lng":"113.11637195855097","lat":"23.05793676754521","stock_exchange":"SZ"},{"stock_code":"000543","stock_name":"皖能电力","company_name":"安徽省皖能股份有限公司","registered_address":"安徽省合肥市马鞍山路76号","lng":"117.22358179202064","lat":"31.8256521842145","stock_exchange":"SZ"},{"stock_code":"000544","stock_name":"中原环保","company_name":"中原环保股份有限公司","registered_address":"河南省郑州市中原区中原中路167号1号楼16层","lng":"113.60576884538345","lat":"34.75288354895916","stock_exchange":"SZ"},{"stock_code":"000545","stock_name":"金浦钛业","company_name":"金浦钛业股份有限公司","registered_address":"吉林省吉林市吉林经济技术开发区吉孤公路480号","lng":"126.4721912187433","lat":"43.96046661606818","stock_exchange":"SZ"},{"stock_code":"000546","stock_name":"金圆股份","company_name":"金圆环保股份有限公司","registered_address":"吉林省长春市净月开发区中信城枫丹白露一期3栋906室","lng":"125.44965740936598","lat":"43.812705629953584","stock_exchange":"SZ"},{"stock_code":"000547","stock_name":"航天发展","company_name":"航天工业发展股份有限公司","registered_address":"福建省福州市台江区五一南路67号","lng":"119.32020115367673","lat":"26.066974994919192","stock_exchange":"SZ"},{"stock_code":"000548","stock_name":"湖南投资","company_name":"湖南投资集团股份有限公司","registered_address":"湖南省长沙市天心区芙蓉中路508号之三君逸康年大酒店十二楼","lng":"112.9924656415314","lat":"28.18682178177936","stock_exchange":"SZ"},{"stock_code":"000550","stock_name":"江铃汽车","company_name":"江铃汽车股份有限公司","registered_address":"江西省南昌市迎宾北大道509号","lng":"115.91407924877818","lat":"28.627486208026646","stock_exchange":"SZ"},{"stock_code":"000552","stock_name":"靖远煤电","company_name":"甘肃靖远煤电股份有限公司","registered_address":"甘肃省白银市平川区大桥路1号","lng":"104.85243791941657","lat":"36.72852924560868","stock_exchange":"SZ"},{"stock_code":"000553","stock_name":"沙隆达Ａ","company_name":"湖北沙隆达股份有限公司","registered_address":"湖北省荆州市北京东路93号","lng":"112.30682946506192","lat":"30.282464907299797","stock_exchange":"SZ"},{"stock_code":"000554","stock_name":"泰山石油","company_name":"中国石化山东泰山石油股份有限公司","registered_address":"山东省泰安市东岳大街369号","lng":"117.10840486026189","lat":"36.19924474443792","stock_exchange":"SZ"},{"stock_code":"000555","stock_name":"神州信息","company_name":"神州数码信息服务股份有限公司","registered_address":"广东省深圳市南山区科发路8号金融服务技术创新基地2栋11B1单元","lng":"113.95240042477256","lat":"22.550411291280305","stock_exchange":"SZ"},{"stock_code":"000557","stock_name":"西部创业","company_name":"宁夏西部创业实业股份有限公司","registered_address":"宁夏回族自治区银川市北京中路168号C座一楼","lng":"106.2290000639062","lat":"38.489379166396965","stock_exchange":"SZ"},{"stock_code":"000558","stock_name":"莱茵体育","company_name":"莱茵达体育发展股份有限公司","registered_address":"浙江省杭州市文三路535号莱茵达大厦","lng":"120.13041957893299","lat":"30.282401711600986","stock_exchange":"SZ"},{"stock_code":"000559","stock_name":"万向钱潮","company_name":"万向钱潮股份有限公司","registered_address":"浙江省杭州市萧山区万向路","lng":"120.2900620701981","lat":"30.20526201141591","stock_exchange":"SZ"},{"stock_code":"000560","stock_name":"我爱我家","company_name":"我爱我家控股集团股份有限公司","registered_address":"云南省昆明市东风西路1号","lng":"102.71570596472681","lat":"25.041967215452072","stock_exchange":"SZ"},{"stock_code":"000561","stock_name":"烽火电子","company_name":"陕西烽火电子股份有限公司","registered_address":"陕西省宝鸡市清姜路72号","lng":"107.13077715906988","lat":"34.3517146905377","stock_exchange":"SZ"},{"stock_code":"000563","stock_name":"陕国投Ａ","company_name":"陕西省国际信托股份有限公司","registered_address":"陕西省西安市高新区科技路50号金桥国际广场C座","lng":"108.89911191465757","lat":"34.242028906177424","stock_exchange":"SZ"},{"stock_code":"000564","stock_name":"供销大集","company_name":"供销大集集团股份有限公司","registered_address":"陕西省西安市解放路103号","lng":"108.97028403139926","lat":"34.27277913548991","stock_exchange":"SZ"},{"stock_code":"000565","stock_name":"渝三峡Ａ","company_name":"重庆三峡油漆股份有限公司","registered_address":"重庆市江津区德感工业园区","lng":"106.22089744292825","lat":"29.260356205904106","stock_exchange":"SZ"},{"stock_code":"000566","stock_name":"海南海药","company_name":"海南海药股份有限公司","registered_address":"海南省海口市秀英区南海大道192号","lng":"110.28831091976177","lat":"20.001388442282934","stock_exchange":"SZ"},{"stock_code":"000567","stock_name":"海德股份","company_name":"海南海德实业股份有限公司","registered_address":"海南省海口市海德路5号","lng":"110.34274924873367","lat":"20.01393192250555","stock_exchange":"SZ"},{"stock_code":"000568","stock_name":"泸州老窖","company_name":"泸州老窖股份有限公司","registered_address":"四川省泸州市国窖广场","lng":"105.46107077963458","lat":"28.890610582423133","stock_exchange":"SZ"},{"stock_code":"000570","stock_name":"苏常柴Ａ","company_name":"常柴股份有限公司","registered_address":"江苏省常州市怀德中路123号","lng":"119.95540593325602","lat":"31.78905286991612","stock_exchange":"SZ"},{"stock_code":"000572","stock_name":"海马汽车","company_name":"海马汽车集团股份有限公司","registered_address":"海南省海口市金盘工业区金盘路12-8号","lng":"110.32519139144503","lat":"19.995915996175775","stock_exchange":"SZ"},{"stock_code":"000573","stock_name":"粤宏远Ａ","company_name":"东莞宏远工业区股份有限公司","registered_address":"广东省东莞市南城区宏远工业区","lng":"113.73844048417088","lat":"23.01865715833291","stock_exchange":"SZ"},{"stock_code":"000576","stock_name":"广东甘化","company_name":"江门甘蔗化工厂(集团)股份有限公司","registered_address":"广东省江门市甘化路56号","lng":"113.11635191915165","lat":"22.61212675634662","stock_exchange":"SZ"},{"stock_code":"000581","stock_name":"威孚高科","company_name":"无锡威孚高科技集团股份有限公司","registered_address":"江苏省无锡国家高新技术产业开发区华山路5号","lng":"119.95584357063268","lat":"31.828869213011757","stock_exchange":"SZ"},{"stock_code":"000582","stock_name":"北部湾港","company_name":"北部湾港股份有限公司","registered_address":"广西壮族自治区北海市海角路145号","lng":"109.09628150252689","lat":"21.483914288221047","stock_exchange":"SZ"},{"stock_code":"000584","stock_name":"哈工智能","company_name":"江苏哈工智能机器人股份有限公司","registered_address":"江苏省江阴市临港街道双良路15号","lng":"120.1015938363555","lat":"31.93552768495712","stock_exchange":"SZ"},{"stock_code":"000585","stock_name":"*ST东电","company_name":"东北电气发展股份有限公司","registered_address":"海南省海口市南海大道266号海口国家高新区创业孵化中心A楼5层A1-1077室","lng":"110.26968668669751","lat":"20.001537804812216","stock_exchange":"SZ"},{"stock_code":"000586","stock_name":"汇源通信","company_name":"四川汇源光通信股份有限公司","registered_address":"四川省成都市高新西区西芯大道5号","lng":"103.9713868541657","lat":"30.7434440831884","stock_exchange":"SZ"},{"stock_code":"000587","stock_name":"金洲慈航","company_name":"金洲慈航集团股份有限公司","registered_address":"黑龙江省伊春市伊春区青山西路118号","lng":"128.87667818972088","lat":"47.71610624002179","stock_exchange":"SZ"},{"stock_code":"000589","stock_name":"黔轮胎Ａ","company_name":"贵州轮胎股份有限公司","registered_address":"贵州省贵阳市百花大道41号","lng":"106.65211125053723","lat":"26.584278262414777","stock_exchange":"SZ"},{"stock_code":"000590","stock_name":"启迪古汉","company_name":"启迪古汉集团股份有限公司","registered_address":"湖南省衡阳市高新区杨柳路33号","lng":"112.55235021022006","lat":"26.890653796302878","stock_exchange":"SZ"},{"stock_code":"000591","stock_name":"太阳能","company_name":"中节能太阳能股份有限公司","registered_address":"重庆市渝中区解放西路1号望江公寓5楼","lng":"106.58403334445222","lat":"29.556528278607683","stock_exchange":"SZ"},{"stock_code":"000592","stock_name":"平潭发展","company_name":"中福海峡（平潭）发展股份有限公司","registered_address":"福建省福州市平潭综合实验区金井湾片区商务营运中心","lng":"119.8102795824344","lat":"25.506543139357913","stock_exchange":"SZ"},{"stock_code":"000593","stock_name":"大通燃气","company_name":"四川大通燃气开发股份有限公司","registered_address":"四川省成都市建设路55号","lng":"104.27906789981313","lat":"30.56725495101204","stock_exchange":"SZ"},{"stock_code":"000595","stock_name":"宝塔实业","company_name":"宝塔实业股份有限公司","registered_address":"宁夏回族自治区银川市西夏区北京西路630号","lng":"106.11047689830919","lat":"38.48922158848683","stock_exchange":"SZ"},{"stock_code":"000596","stock_name":"古井贡酒","company_name":"安徽古井贡酒股份有限公司","registered_address":"安徽省亳州市古井镇","lng":"115.687817705949","lat":"34.0180675446884","stock_exchange":"SZ"},{"stock_code":"000597","stock_name":"东北制药","company_name":"东北制药集团股份有限公司","registered_address":"辽宁省沈阳经济技术开发区昆明湖街8号","lng":"123.29347775057343","lat":"41.78089382877191","stock_exchange":"SZ"},{"stock_code":"000598","stock_name":"兴蓉环境","company_name":"成都市兴蓉环境股份有限公司","registered_address":"四川省成都市青羊区苏坡乡万家湾村","lng":"103.99418443227945","lat":"30.67661928761275","stock_exchange":"SZ"},{"stock_code":"000599","stock_name":"青岛双星","company_name":"青岛双星股份有限公司","registered_address":"山东省青岛市黄岛区两河路666号","lng":"120.06867150624558","lat":"35.90084340675812","stock_exchange":"SZ"},{"stock_code":"000600","stock_name":"建投能源","company_name":"河北建投能源投资股份有限公司","registered_address":"河北省石家庄市裕华西路9号裕园广场A座","lng":"114.49060000896608","lat":"38.04266298195897","stock_exchange":"SZ"},{"stock_code":"000601","stock_name":"韶能股份","company_name":"广东韶能集团股份有限公司","registered_address":"广东省韶关市武江区沿江路16号","lng":"113.59114767163092","lat":"24.782786558411235","stock_exchange":"SZ"},{"stock_code":"000603","stock_name":"盛达矿业","company_name":"盛达矿业股份有限公司","registered_address":"北京市大兴区瀛海镇京福路瀛海段1号","lng":"116.45245549527958","lat":"39.76258517841261","stock_exchange":"SZ"},{"stock_code":"000605","stock_name":"渤海股份","company_name":"渤海水业股份有限公司","registered_address":"北京市顺义区中关村科技园顺义园临空二路1号","lng":"116.66086677529147","lat":"40.22478300239921","stock_exchange":"SZ"},{"stock_code":"000606","stock_name":"顺利办","company_name":"顺利办信息服务股份有限公司","registered_address":"青海省西宁市城西区五四西路57号5号楼","lng":"101.73793465357419","lat":"36.647180977602545","stock_exchange":"SZ"},{"stock_code":"000607","stock_name":"华媒控股","company_name":"浙江华媒控股股份有限公司","registered_address":"浙江省杭州市下城区体育场路218号","lng":"120.17703136008242","lat":"30.276447978437844","stock_exchange":"SZ"},{"stock_code":"000608","stock_name":"阳光股份","company_name":"阳光新业地产股份有限公司","registered_address":"广西壮族自治区南宁市江南路230号南宁经济技术开发区","lng":"108.26195485273743","lat":"22.78024229653383","stock_exchange":"SZ"},{"stock_code":"000610","stock_name":"西安旅游","company_name":"西安旅游股份有限公司","registered_address":"陕西省西安市南二环西段27号西安旅游大厦七层","lng":"108.94343292153616","lat":"34.23666511982311","stock_exchange":"SZ"},{"stock_code":"000611","stock_name":"天首发展","company_name":"内蒙古天首科技发展股份有限公司","registered_address":"内蒙古自治区包头市青山区钢铁大街7号正翔国际广场B6号楼","lng":"109.87001264055935","lat":"40.66254834271688","stock_exchange":"SZ"},{"stock_code":"000612","stock_name":"焦作万方","company_name":"焦作万方铝业股份有限公司","registered_address":"河南省焦作市马村区待王镇焦新路南侧","lng":"113.34517972607884","lat":"35.24397596412278","stock_exchange":"SZ"},{"stock_code":"000613","stock_name":"大东海A","company_name":"海南大东海旅游中心股份有限公司","registered_address":"海南省三亚市大东海","lng":"109.53269948320784","lat":"18.22769209632241","stock_exchange":"SZ"},{"stock_code":"000615","stock_name":"京汉股份","company_name":"京汉实业投资集团股份有限公司","registered_address":"湖北省襄阳市樊城区陈家湖","lng":"111.92852759276428","lat":"32.15395334400884","stock_exchange":"SZ"},{"stock_code":"000616","stock_name":"海航投资","company_name":"海航投资集团股份有限公司","registered_address":"辽宁省大连市中山区长江路123号长江写字楼2129","lng":"121.64897969786075","lat":"38.93258557345753","stock_exchange":"SZ"},{"stock_code":"000617","stock_name":"中油资本","company_name":"中国石油集团资本股份有限公司","registered_address":"新疆维吾尔自治区克拉玛依市世纪大道7号","lng":"84.88446555888571","lat":"45.580980280797455","stock_exchange":"SZ"},{"stock_code":"000619","stock_name":"海螺型材","company_name":"芜湖海螺型材科技股份有限公司","registered_address":"安徽省芜湖市经济开发区港湾路","lng":"118.41342912765023","lat":"31.42738870795578","stock_exchange":"SZ"},{"stock_code":"000620","stock_name":"新华联","company_name":"新华联文化旅游发展股份有限公司","registered_address":"北京市通州区潞城镇人民政府北楼209室","lng":"116.73538363737919","lat":"39.9223538594154","stock_exchange":"SZ"},{"stock_code":"000622","stock_name":"恒立实业","company_name":"恒立实业发展集团股份有限公司","registered_address":"湖南省岳阳市岳阳楼区冷水铺办事处冷水铺居委会10幢301","lng":"113.14310575240053","lat":"29.386736053727155","stock_exchange":"SZ"},{"stock_code":"000623","stock_name":"吉林敖东","company_name":"吉林敖东药业集团股份有限公司","registered_address":"吉林省敦化市敖东大街2158号","lng":"128.23516358270783","lat":"43.36594859228077","stock_exchange":"SZ"},{"stock_code":"000625","stock_name":"长安汽车","company_name":"重庆长安汽车股份有限公司","registered_address":"重庆市江北区建新东路260号","lng":"106.55523951149257","lat":"29.57975003380974","stock_exchange":"SZ"},{"stock_code":"000626","stock_name":"远大控股","company_name":"远大产业控股股份有限公司","registered_address":"江苏省连云港市经济技术开发区高新八路4号","lng":"119.20575979929323","lat":"34.65062843652729","stock_exchange":"SZ"},{"stock_code":"000627","stock_name":"天茂集团","company_name":"天茂实业集团股份有限公司","registered_address":"湖北省荆门市杨湾路132号","lng":"112.24807209485805","lat":"31.026498641654957","stock_exchange":"SZ"},{"stock_code":"000628","stock_name":"高新发展","company_name":"成都高新发展股份有限公司","registered_address":"四川省成都市高新技术产业开发区","lng":"104.06792346330406","lat":"30.679942845419564","stock_exchange":"SZ"},{"stock_code":"000629","stock_name":"攀钢钒钛","company_name":"攀钢集团钒钛资源股份有限公司","registered_address":"四川省攀枝花市弄弄坪","lng":"101.68778215644268","lat":"26.560088739254333","stock_exchange":"SZ"},{"stock_code":"000630","stock_name":"铜陵有色","company_name":"铜陵有色金属集团股份有限公司","registered_address":"安徽省铜陵市长江西路","lng":"117.8105595698622","lat":"30.94009655867093","stock_exchange":"SZ"},{"stock_code":"000631","stock_name":"顺发恒业","company_name":"顺发恒业股份公司","registered_address":"吉林省长春市前进大街3055号南湖新村办公室201室","lng":"125.29528694557955","lat":"43.82664612094736","stock_exchange":"SZ"},{"stock_code":"000632","stock_name":"三木集团","company_name":"福建三木集团股份有限公司","registered_address":"福建省福州市开发区君竹路162号","lng":"119.46479275214053","lat":"25.99994052924703","stock_exchange":"SZ"},{"stock_code":"000633","stock_name":"合金投资","company_name":"新疆合金投资股份有限公司","registered_address":"新疆维吾尔自治区和田市北京工业园区杭州大道2号电子产业园102室","lng":"79.96552547001842","lat":"37.1270785170734","stock_exchange":"SZ"},{"stock_code":"000635","stock_name":"英力特","company_name":"宁夏英力特化工股份有限公司","registered_address":"宁夏回族自治区石嘴山市惠农区钢电路","lng":"106.78971928474147","lat":"39.323401603148405","stock_exchange":"SZ"},{"stock_code":"000636","stock_name":"风华高科","company_name":"广东风华高新科技股份有限公司","registered_address":"广东省肇庆市风华路18号风华电子工业城","lng":"112.44960043512366","lat":"23.070516595220695","stock_exchange":"SZ"},{"stock_code":"000637","stock_name":"茂化实华","company_name":"茂名石化实华股份有限公司","registered_address":"广东省茂名市官渡路162号","lng":"110.9232437618262","lat":"21.681491325639225","stock_exchange":"SZ"},{"stock_code":"000638","stock_name":"万方发展","company_name":"万方城镇投资发展股份有限公司","registered_address":"辽宁省沈阳市和平区中华路126号","lng":"123.41310423206559","lat":"41.79572491165295","stock_exchange":"SZ"},{"stock_code":"000639","stock_name":"西王食品","company_name":"西王食品股份有限公司","registered_address":"山东省滨州市邹平县西王工业园","lng":"117.67080618615937","lat":"36.956593309429216","stock_exchange":"SZ"},{"stock_code":"000650","stock_name":"仁和药业","company_name":"仁和药业股份有限公司","registered_address":"江西省南昌市高新开发区京东北大道399号","lng":"115.95512142256571","lat":"28.693747023517925","stock_exchange":"SZ"},{"stock_code":"000651","stock_name":"格力电器","company_name":"珠海格力电器股份有限公司","registered_address":"广东省珠海市前山金鸡西路","lng":"113.52845379824532","lat":"22.255890511526097","stock_exchange":"SZ"},{"stock_code":"000652","stock_name":"泰达股份","company_name":"天津泰达股份有限公司","registered_address":"天津市开发区第三大街16号","lng":"117.69701510714741","lat":"39.04161537633128","stock_exchange":"SZ"},{"stock_code":"000655","stock_name":"*ST金岭","company_name":"山东金岭矿业股份有限公司","registered_address":"山东省淄博市张店区中埠镇","lng":"118.18696079568387","lat":"36.85051782804575","stock_exchange":"SZ"},{"stock_code":"000656","stock_name":"金科股份","company_name":"金科地产集团股份有限公司","registered_address":"重庆市江北区复盛镇正街（政府大楼）","lng":"106.55809872809934","lat":"29.569317827717615","stock_exchange":"SZ"},{"stock_code":"000657","stock_name":"中钨高新","company_name":"中钨高新材料股份有限公司","registered_address":"海南省海口市龙昆北路2号珠江广场帝都大厦18楼","lng":"110.32814911982722","lat":"20.03881939433795","stock_exchange":"SZ"},{"stock_code":"000659","stock_name":"珠海中富","company_name":"珠海中富实业股份有限公司","registered_address":"广东省珠海市保税区1号地三号厂房201号","lng":"113.49262326604178","lat":"22.176907624316815","stock_exchange":"SZ"},{"stock_code":"000661","stock_name":"长春高新","company_name":"长春高新技术产业(集团)股份有限公司","registered_address":"吉林省长春市同志街2400号火炬大厦五层","lng":"125.32515474320965","lat":"43.87372067186361","stock_exchange":"SZ"},{"stock_code":"000662","stock_name":"天夏智慧","company_name":"天夏智慧城市科技股份有限公司","registered_address":"广西壮族自治区梧州市新兴二路137号","lng":"111.27751776057865","lat":"23.490143670557217","stock_exchange":"SZ"},{"stock_code":"000663","stock_name":"永安林业","company_name":"福建省永安林业(集团)股份有限公司","registered_address":"福建省永安市燕江东路819号","lng":"117.37923817236708","lat":"25.98349540648144","stock_exchange":"SZ"},{"stock_code":"000665","stock_name":"湖北广电","company_name":"湖北省广播电视信息网络股份有限公司","registered_address":"湖北省武汉经济技术开发区工业区","lng":"114.17494623242594","lat":"30.495370641667627","stock_exchange":"SZ"},{"stock_code":"000666","stock_name":"经纬纺机","company_name":"经纬纺织机械股份有限公司","registered_address":"北京市北京经济技术开发区永昌中路8号","lng":"116.52748277006654","lat":"39.79789835341879","stock_exchange":"SZ"},{"stock_code":"000667","stock_name":"美好置业","company_name":"美好置业集团股份有限公司","registered_address":"云南省昆明市盘龙区穿金路205号霖岚广场B座1506","lng":"102.73751772080738","lat":"25.059893283332087","stock_exchange":"SZ"},{"stock_code":"000668","stock_name":"荣丰控股","company_name":"荣丰控股集团股份有限公司","registered_address":"上海市浦东新区浦东大道1200号1908室","lng":"121.54058970946728","lat":"31.247746641488884","stock_exchange":"SZ"},{"stock_code":"000669","stock_name":"金鸿控股","company_name":"金鸿控股集团股份有限公司","registered_address":"吉林省吉林市高新区恒山西路108号","lng":"126.5564066551339","lat":"43.82639245771077","stock_exchange":"SZ"},{"stock_code":"000670","stock_name":"盈方微","company_name":"盈方微电子股份有限公司","registered_address":"湖北省荆州市沙市区北京西路440号","lng":"112.23643073007615","lat":"30.33922574133359","stock_exchange":"SZ"},{"stock_code":"000671","stock_name":"阳光城","company_name":"阳光城集团股份有限公司","registered_address":"福建省福州经济技术开发区星发路8号","lng":"119.4650974079626","lat":"25.996280428168536","stock_exchange":"SZ"},{"stock_code":"000672","stock_name":"上峰水泥","company_name":"甘肃上峰水泥股份有限公司","registered_address":"甘肃省白银市白银区五一街8号","lng":"104.17755797313409","lat":"36.55282908659322","stock_exchange":"SZ"},{"stock_code":"000673","stock_name":"当代东方","company_name":"当代东方投资股份有限公司","registered_address":"山西省大同市口泉","lng":"113.91417946152876","lat":"39.867549495405946","stock_exchange":"SZ"},{"stock_code":"000676","stock_name":"智度股份","company_name":"智度科技股份有限公司","registered_address":"河南省郑州市高新技术产业开发区玉兰街101号","lng":"113.5427752155132","lat":"34.8097294261518","stock_exchange":"SZ"},{"stock_code":"000677","stock_name":"恒天海龙","company_name":"恒天海龙股份有限公司","registered_address":"山东省潍坊市寒亭区海龙路555号","lng":"119.19257325740703","lat":"36.78030436791976","stock_exchange":"SZ"},{"stock_code":"000678","stock_name":"襄阳轴承","company_name":"襄阳汽车轴承股份有限公司","registered_address":"湖北省襄阳市襄城区轴承路1号","lng":"112.01708254993791","lat":"31.935360283633223","stock_exchange":"SZ"},{"stock_code":"000679","stock_name":"大连友谊","company_name":"大连友谊(集团)股份有限公司","registered_address":"辽宁省大连市中山区七一街1号","lng":"121.65159857732078","lat":"38.92853449628237","stock_exchange":"SZ"},{"stock_code":"000680","stock_name":"山推股份","company_name":"山推工程机械股份有限公司","registered_address":"山东省济宁市高新区327国道58号","lng":"116.62244274523822","lat":"35.41475110979117","stock_exchange":"SZ"},{"stock_code":"000681","stock_name":"视觉中国","company_name":"视觉(中国)文化发展股份有限公司","registered_address":"江苏省常州市武进区西太湖科技产业园禾香路123号","lng":"119.86213607678269","lat":"31.714827633847445","stock_exchange":"SZ"},{"stock_code":"000682","stock_name":"东方电子","company_name":"东方电子股份有限公司","registered_address":"山东省烟台市芝罘区机场路2号","lng":"121.37787452378153","lat":"37.52716442508513","stock_exchange":"SZ"},{"stock_code":"000683","stock_name":"远兴能源","company_name":"内蒙古远兴能源股份有限公司","registered_address":"内蒙古自治区鄂尔多斯市东胜区伊煤南路14号创业大厦B座16层","lng":"109.98518375758653","lat":"39.8331819018117","stock_exchange":"SZ"},{"stock_code":"000685","stock_name":"中山公用","company_name":"中山公用事业集团股份有限公司","registered_address":"广东省中山市兴中道十八号财兴大厦北座","lng":"113.39673629531042","lat":"22.520076853716894","stock_exchange":"SZ"},{"stock_code":"000686","stock_name":"东北证券","company_name":"东北证券股份有限公司","registered_address":"吉林省长春市生态大街6666号","lng":"125.38660104902539","lat":"43.7821010279971","stock_exchange":"SZ"},{"stock_code":"000687","stock_name":"华讯方舟","company_name":"华讯方舟股份有限公司","registered_address":"河北省雄安新区安新县新旅游路北侧7号别墅","lng":"115.97176413214079","lat":"38.94904090515883","stock_exchange":"SZ"},{"stock_code":"000688","stock_name":"国城矿业","company_name":"国城矿业股份有限公司","registered_address":"重庆市涪陵区江东群沱子路31号","lng":"107.34079973802694","lat":"29.66467054055969","stock_exchange":"SZ"},{"stock_code":"000690","stock_name":"宝新能源","company_name":"广东宝丽华新能源股份有限公司","registered_address":"广东省梅州市梅县华侨城香港花园宝丽华综合大楼","lng":"116.11086253611901","lat":"24.29533866778432","stock_exchange":"SZ"},{"stock_code":"000691","stock_name":"亚太实业","company_name":"海南亚太实业发展股份有限公司","registered_address":"甘肃省兰州市兰州新区亚太工业科技总部基地A1号办公楼","lng":"103.63525740006855","lat":"36.48473008910886","stock_exchange":"SZ"},{"stock_code":"000692","stock_name":"惠天热电","company_name":"沈阳惠天热电股份有限公司","registered_address":"辽宁省沈阳市沈河区热闹路47号","lng":"123.45080705754016","lat":"41.79373896059875","stock_exchange":"SZ"},{"stock_code":"000693","stock_name":"*ST华泽","company_name":"成都华泽钴镍材料股份有限公司","registered_address":"四川省成都市海峡两岸科技开发园科技创新中心","lng":"103.81273822386258","lat":"30.685849773541175","stock_exchange":"SZ"},{"stock_code":"000695","stock_name":"滨海能源","company_name":"天津滨海能源发展股份有限公司","registered_address":"天津市开发区第十一大街27号","lng":"117.7194500914285","lat":"39.07614414794613","stock_exchange":"SZ"},{"stock_code":"000697","stock_name":"炼石有色","company_name":"陕西炼石有色资源股份有限公司","registered_address":"陕西省西咸新区沣西新城世纪大道55号","lng":"108.73340001143461","lat":"34.32239331615487","stock_exchange":"SZ"},{"stock_code":"000698","stock_name":"沈阳化工","company_name":"沈阳化工股份有限公司","registered_address":"辽宁省沈阳市经济技术开发区沈西三东路55号","lng":"123.15591699393067","lat":"41.74591986132996","stock_exchange":"SZ"},{"stock_code":"000700","stock_name":"模塑科技","company_name":"江南模塑科技股份有限公司","registered_address":"江苏省江阴市周庄镇长青路8号","lng":"120.43126978551638","lat":"31.857089002325246","stock_exchange":"SZ"},{"stock_code":"000701","stock_name":"厦门信达","company_name":"厦门信达股份有限公司","registered_address":"福建省厦门市湖里区兴隆路27号第7层","lng":"118.10558914307961","lat":"24.515458978566414","stock_exchange":"SZ"},{"stock_code":"000702","stock_name":"正虹科技","company_name":"湖南正虹科技发展股份有限公司","registered_address":"湖南省岳阳市屈原管理区营田镇","lng":"112.92320440568324","lat":"28.866563943860225","stock_exchange":"SZ"},{"stock_code":"000703","stock_name":"恒逸石化","company_name":"恒逸石化股份有限公司","registered_address":"广西壮族自治区北海市北海大道西16号海富大厦第七层G号","lng":"109.1106601766676","lat":"21.4704463638681","stock_exchange":"SZ"},{"stock_code":"000705","stock_name":"浙江震元","company_name":"浙江震元股份有限公司","registered_address":"浙江省绍兴市解放北路289号","lng":"120.58754494354342","lat":"30.010489822943555","stock_exchange":"SZ"},{"stock_code":"000707","stock_name":"*ST双环","company_name":"湖北双环科技股份有限公司","registered_address":"湖北省应城市东马坊团结大道26号","lng":"113.71103193739842","lat":"30.922070031672213","stock_exchange":"SZ"},{"stock_code":"000708","stock_name":"大冶特钢","company_name":"大冶特殊钢股份有限公司","registered_address":"湖北省黄石市黄石大道316号","lng":"115.12855466529459","lat":"30.21074190332372","stock_exchange":"SZ"},{"stock_code":"000709","stock_name":"河钢股份","company_name":"河钢股份有限公司","registered_address":"河北省石家庄市体育南大街385号","lng":"114.54146244602595","lat":"38.01203727029875","stock_exchange":"SZ"},{"stock_code":"000710","stock_name":"贝瑞基因","company_name":"成都市贝瑞和康基因技术股份有限公司","registered_address":"四川省成都市经济技术开发区（龙泉驿区）成都汽车城大道333号","lng":"104.20224910739844","lat":"30.548471191092062","stock_exchange":"SZ"},{"stock_code":"000711","stock_name":"京蓝科技","company_name":"京蓝科技股份有限公司","registered_address":"黑龙江省哈尔滨市南岗区经济技术开发区","lng":"126.59025453923977","lat":"45.66612348458037","stock_exchange":"SZ"},{"stock_code":"000712","stock_name":"锦龙股份","company_name":"广东锦龙发展股份有限公司","registered_address":"广东省东莞市凤岗镇雁田东深二路66号天安数码城S3栋19楼03单元","lng":"114.22336605239114","lat":"22.725812292297825","stock_exchange":"SZ"},{"stock_code":"000713","stock_name":"丰乐种业","company_name":"合肥丰乐种业股份有限公司","registered_address":"安徽省合肥市蜀山区创业大道4号","lng":"117.21703116229263","lat":"31.86779056565797","stock_exchange":"SZ"},{"stock_code":"000715","stock_name":"中兴商业","company_name":"中兴-沈阳商业大厦(集团)股份有限公司","registered_address":"辽宁省沈阳市和平区太原北街86号","lng":"123.40834103626847","lat":"41.799012550274725","stock_exchange":"SZ"},{"stock_code":"000716","stock_name":"黑芝麻","company_name":"南方黑芝麻集团股份有限公司","registered_address":"广西壮族自治区容县城南工业集中区黑五类产业园","lng":"110.61027737584313","lat":"22.83161412108759","stock_exchange":"SZ"},{"stock_code":"000717","stock_name":"韶钢松山","company_name":"广东韶钢松山股份有限公司","registered_address":"广东省韶关市曲江区马坝","lng":"113.61235931920729","lat":"24.685313108653393","stock_exchange":"SZ"},{"stock_code":"000718","stock_name":"苏宁环球","company_name":"苏宁环球股份有限公司","registered_address":"吉林省吉林经济技术开发区九站街718号","lng":"126.47988776740357","lat":"43.94938879080319","stock_exchange":"SZ"},{"stock_code":"000719","stock_name":"中原传媒","company_name":"中原大地传媒股份有限公司","registered_address":"河南省焦作市塔南路45号","lng":"113.25095664079835","lat":"35.24892015649618","stock_exchange":"SZ"},{"stock_code":"000720","stock_name":"*ST新能","company_name":"山东新能泰山发电股份有限公司","registered_address":"山东省泰安市普照寺路5号","lng":"117.12861658691428","lat":"36.204524035763434","stock_exchange":"SZ"},{"stock_code":"000721","stock_name":"西安饮食","company_name":"西安饮食股份有限公司","registered_address":"陕西省西安市碑林区南二环西段27号西安旅游大厦六层","lng":"108.94343292153616","lat":"34.23666511982311","stock_exchange":"SZ"},{"stock_code":"000722","stock_name":"湖南发展","company_name":"湖南发展集团股份有限公司","registered_address":"湖南省长沙市天心区芙蓉中路三段142号光大发展大厦2708","lng":"112.9913625035011","lat":"28.174387226292907","stock_exchange":"SZ"},{"stock_code":"000723","stock_name":"美锦能源","company_name":"山西美锦能源股份有限公司","registered_address":"山西省太原市清徐县贯中大厦","lng":"112.36238139644337","lat":"37.60931647541007","stock_exchange":"SZ"},{"stock_code":"000725","stock_name":"京东方Ａ","company_name":"京东方科技集团股份有限公司","registered_address":"北京市朝阳区酒仙桥路10号","lng":"116.49919900215238","lat":"39.985064752922916","stock_exchange":"SZ"},{"stock_code":"000726","stock_name":"鲁泰Ａ","company_name":"鲁泰纺织股份有限公司","registered_address":"山东省淄博市高新技术开发区铭波路11号","lng":"117.74036499815952","lat":"36.20743653308221","stock_exchange":"SZ"},{"stock_code":"000727","stock_name":"华东科技","company_name":"南京华东电子信息科技股份有限公司","registered_address":"江苏省南京市高新技术开发区新科二路28号","lng":"118.70704431248674","lat":"32.17658135919012","stock_exchange":"SZ"},{"stock_code":"000728","stock_name":"国元证券","company_name":"国元证券股份有限公司","registered_address":"安徽省合肥市梅山路18号","lng":"117.27560948493719","lat":"31.856756925583667","stock_exchange":"SZ"},{"stock_code":"000729","stock_name":"燕京啤酒","company_name":"北京燕京啤酒股份有限公司","registered_address":"北京市顺义区双河路9号","lng":"116.69017426114785","lat":"40.10286066312995","stock_exchange":"SZ"},{"stock_code":"000731","stock_name":"四川美丰","company_name":"四川美丰化工股份有限公司","registered_address":"四川省射洪县太和镇新阳街87号","lng":"105.39626790791796","lat":"30.87433958574589","stock_exchange":"SZ"},{"stock_code":"000732","stock_name":"泰禾集团","company_name":"泰禾集团股份有限公司","registered_address":"福建省三明市梅列区徐碧","lng":"117.64463507926666","lat":"26.28340373299353","stock_exchange":"SZ"},{"stock_code":"000733","stock_name":"振华科技","company_name":"中国振华(集团)科技股份有限公司","registered_address":"贵州省贵阳市乌当区新添大道北段268号","lng":"106.77192916718214","lat":"26.635801457162106","stock_exchange":"SZ"},{"stock_code":"000735","stock_name":"罗牛山","company_name":"罗牛山股份有限公司","registered_address":"海南省海口市人民大道50号","lng":"110.34625345139132","lat":"20.062427711130056","stock_exchange":"SZ"},{"stock_code":"000736","stock_name":"中交地产","company_name":"中交地产股份有限公司","registered_address":"重庆市江北区建新北路86号","lng":"106.5349287575938","lat":"29.58689866957569","stock_exchange":"SZ"},{"stock_code":"000737","stock_name":"*ST南风","company_name":"南风化工集团股份有限公司","registered_address":"山西省运城市红旗东街376号","lng":"111.0238723204585","lat":"35.031199068140715","stock_exchange":"SZ"},{"stock_code":"000738","stock_name":"航发控制","company_name":"中国航发动力控制股份有限公司","registered_address":"江苏省无锡市滨湖区刘闾路33号","lng":"120.14880815654763","lat":"31.549962645270284","stock_exchange":"SZ"},{"stock_code":"000739","stock_name":"普洛药业","company_name":"普洛药业股份有限公司","registered_address":"浙江省东阳市横店江南路333号","lng":"120.30801996832676","lat":"29.158348395723337","stock_exchange":"SZ"},{"stock_code":"000750","stock_name":"国海证券","company_name":"国海证券股份有限公司","registered_address":"广西壮族自治区桂林市辅星路13号","lng":"110.31731989958591","lat":"25.267067295451056","stock_exchange":"SZ"},{"stock_code":"000751","stock_name":"锌业股份","company_name":"葫芦岛锌业股份有限公司","registered_address":"辽宁省葫芦岛市龙港区锌厂路24号","lng":"120.94205617985045","lat":"40.72488004035147","stock_exchange":"SZ"},{"stock_code":"000752","stock_name":"西藏发展","company_name":"西藏银河科技发展股份有限公司","registered_address":"西藏自治区拉萨市金珠西路格桑林卡A区28-5","lng":"91.06509811796774","lat":"29.65112736918438","stock_exchange":"SZ"},{"stock_code":"000753","stock_name":"漳州发展","company_name":"福建漳州发展股份有限公司","registered_address":"福建省漳州市胜利东路漳州发展广场","lng":"117.66725265581317","lat":"24.51962123938157","stock_exchange":"SZ"},{"stock_code":"000755","stock_name":"*ST三维","company_name":"山西三维集团股份有限公司","registered_address":"山西省洪洞县赵城镇","lng":"111.7290984740382","lat":"36.4044830832662","stock_exchange":"SZ"},{"stock_code":"000756","stock_name":"新华制药","company_name":"山东新华制药股份有限公司","registered_address":"山东省淄博市高新技术产业开发区化工区","lng":"118.05913427786938","lat":"36.80468485421204","stock_exchange":"SZ"},{"stock_code":"000757","stock_name":"浩物股份","company_name":"四川浩物机电股份有限公司","registered_address":"四川省内江市市中区汉渝大道1558号","lng":"105.02951817789922","lat":"29.586641433706554","stock_exchange":"SZ"},{"stock_code":"000758","stock_name":"中色股份","company_name":"中国有色金属建设股份有限公司","registered_address":"北京市丰台区西客站南广场驻京办一号楼B座","lng":"116.33242364354469","lat":"39.89910803467725","stock_exchange":"SZ"},{"stock_code":"000759","stock_name":"中百集团","company_name":"中百控股集团股份有限公司","registered_address":"湖北省武汉市江汉区江汉路129号","lng":"114.29623486836594","lat":"30.587537409957527","stock_exchange":"SZ"},{"stock_code":"000760","stock_name":"斯太尔","company_name":"斯太尔动力股份有限公司","registered_address":"湖北省公安县斗湖堤镇荆江大道178号","lng":"112.23963979311219","lat":"30.06587558962166","stock_exchange":"SZ"},{"stock_code":"000761","stock_name":"本钢板材","company_name":"本钢板材股份有限公司","registered_address":"辽宁省本溪市平山区人民路16号","lng":"123.77345000038876","lat":"41.30104092405457","stock_exchange":"SZ"},{"stock_code":"000762","stock_name":"西藏矿业","company_name":"西藏矿业发展股份有限公司","registered_address":"西藏自治区拉萨市中和国际城金珠二路8号","lng":"91.12475229528833","lat":"29.64782198339245","stock_exchange":"SZ"},{"stock_code":"000766","stock_name":"通化金马","company_name":"通化金马药业集团股份有限公司","registered_address":"吉林省通化市二道江区金马路999号","lng":"126.15628012438644","lat":"41.77262595942713","stock_exchange":"SZ"},{"stock_code":"000767","stock_name":"漳泽电力","company_name":"山西漳泽电力股份有限公司","registered_address":"山西省太原市晋阳街南一条10号","lng":"112.55589073935026","lat":"37.88374574737734","stock_exchange":"SZ"},{"stock_code":"000768","stock_name":"中航飞机","company_name":"中航飞机股份有限公司","registered_address":"陕西省西安市阎良区西飞大道一号","lng":"109.2336508577645","lat":"34.66264675903606","stock_exchange":"SZ"},{"stock_code":"000776","stock_name":"广发证券","company_name":"广发证券股份有限公司","registered_address":"广东省广州市黄埔区中新广州知识城腾飞一街2号618室","lng":"113.49288457424916","lat":"23.10871181423915","stock_exchange":"SZ"},{"stock_code":"000777","stock_name":"中核科技","company_name":"中核苏阀科技实业股份有限公司","registered_address":"江苏省苏州市国家高新技术产业开发区浒关工业园","lng":"120.39330615051158","lat":"31.52966061607847","stock_exchange":"SZ"},{"stock_code":"000778","stock_name":"新兴铸管","company_name":"新兴铸管股份有限公司","registered_address":"河北省武安市上洛阳村北(二六七二厂区)","lng":"114.13850034746164","lat":"36.61559893360754","stock_exchange":"SZ"},{"stock_code":"000779","stock_name":"三毛派神","company_name":"兰州三毛实业股份有限公司","registered_address":"甘肃省兰州市兰州新区嘉陵江街568号","lng":"103.67335175110134","lat":"36.539171554591405","stock_exchange":"SZ"},{"stock_code":"000780","stock_name":"平庄能源","company_name":"内蒙古平庄能源股份有限公司","registered_address":"内蒙古自治区赤峰市元宝山区平庄镇哈河街","lng":"119.280407439392","lat":"42.04391638257156","stock_exchange":"SZ"},{"stock_code":"000782","stock_name":"美达股份","company_name":"广东新会美达锦纶股份有限公司","registered_address":"广东省江门市新会区会城镇江会路上浅口","lng":"113.08036336602589","lat":"22.555469869255155","stock_exchange":"SZ"},{"stock_code":"000783","stock_name":"长江证券","company_name":"长江证券股份有限公司","registered_address":"湖北省武汉市江汉区新华路特8号","lng":"114.294703561997","lat":"30.62117802828821","stock_exchange":"SZ"},{"stock_code":"000785","stock_name":"武汉中商","company_name":"武汉中商集团股份有限公司","registered_address":"湖北省武汉市武昌区中南路9号","lng":"114.33821011479515","lat":"30.54268353485806","stock_exchange":"SZ"},{"stock_code":"000786","stock_name":"北新建材","company_name":"北新集团建材股份有限公司","registered_address":"北京市海淀区复兴路17号国海广场2号楼15层","lng":"116.32051103451576","lat":"39.91406449260979","stock_exchange":"SZ"},{"stock_code":"000788","stock_name":"北大医药","company_name":"北大医药股份有限公司","registered_address":"重庆市北碚区水土镇方正大道21号","lng":"106.52853652682707","lat":"29.815338180373534","stock_exchange":"SZ"},{"stock_code":"000789","stock_name":"万年青","company_name":"江西万年青水泥股份有限公司","registered_address":"江西省万年县陈营镇","lng":"117.05733488450036","lat":"28.726491211015023","stock_exchange":"SZ"},{"stock_code":"000790","stock_name":"泰合健康","company_name":"成都泰合健康科技集团股份有限公司","registered_address":"四川省成都高新区（西区）蜀新大道1168号2栋1楼101号","lng":"101.5553323090427","lat":"26.610869144062764","stock_exchange":"SZ"},{"stock_code":"000791","stock_name":"甘肃电投","company_name":"甘肃电投能源发展股份有限公司","registered_address":"中国甘肃省兰州市城关区北滨河东路69号甘肃投资集团大厦","lng":"103.85705468711191","lat":"36.07677274025134","stock_exchange":"SZ"},{"stock_code":"000792","stock_name":"盐湖股份","company_name":"青海盐湖工业股份有限公司","registered_address":"青海省格尔木市黄河路28号","lng":"94.91337735014218","lat":"36.39644167987325","stock_exchange":"SZ"},{"stock_code":"000793","stock_name":"华闻传媒","company_name":"华闻传媒投资集团股份有限公司","registered_address":"海南省海口市海甸四东路民生大厦","lng":"110.35329954691085","lat":"20.06193851337715","stock_exchange":"SZ"},{"stock_code":"000795","stock_name":"英洛华","company_name":"英洛华科技股份有限公司","registered_address":"山西省太原市万柏林区新晋祠路147号尚德峰国际14层","lng":"112.53219124723329","lat":"37.80645884238718","stock_exchange":"SZ"},{"stock_code":"000796","stock_name":"凯撒旅游","company_name":"海航凯撒旅游集团股份有限公司","registered_address":"陕西省宝鸡市渭滨区经二路155号","lng":"107.15899373013868","lat":"34.37672045528611","stock_exchange":"SZ"},{"stock_code":"000797","stock_name":"中国武夷","company_name":"中国武夷实业股份有限公司","registered_address":"福建省福州市鼓楼区温泉街道五四路89号置地广场4层","lng":"119.31361262221932","lat":"26.100126350906937","stock_exchange":"SZ"},{"stock_code":"000798","stock_name":"中水渔业","company_name":"中水集团远洋股份有限公司","registered_address":"北京市西城区西单民丰胡同31号中水大厦6层","lng":"116.37863688067495","lat":"39.91531323071834","stock_exchange":"SZ"},{"stock_code":"000799","stock_name":"酒鬼酒","company_name":"酒鬼酒股份有限公司","registered_address":"湖南省吉首市峒河街道振武营村","lng":"109.779014049979","lat":"28.368807092592014","stock_exchange":"SZ"},{"stock_code":"000800","stock_name":"一汽轿车","company_name":"一汽轿车股份有限公司","registered_address":"吉林省长春市高新技术产业开发区蔚山路4888号","lng":"125.24296328255679","lat":"43.82696156586607","stock_exchange":"SZ"},{"stock_code":"000801","stock_name":"四川九洲","company_name":"四川九洲电器股份有限公司","registered_address":"四川省绵阳市科创园区九洲大道259号","lng":"104.6764437005127","lat":"31.502340675033782","stock_exchange":"SZ"},{"stock_code":"000802","stock_name":"北京文化","company_name":"北京京西文化旅游股份有限公司","registered_address":"北京市门头沟区水闸路21号12幢","lng":"116.11222191417188","lat":"39.96617333374174","stock_exchange":"SZ"},{"stock_code":"000803","stock_name":"*ST金宇","company_name":"四川金宇汽车城(集团)股份有限公司","registered_address":"四川省南充市顺庆区延安路380号","lng":"106.10855019199037","lat":"30.811744973136946","stock_exchange":"SZ"},{"stock_code":"000806","stock_name":"银河生物","company_name":"北海银河生物产业投资股份有限公司","registered_address":"广西壮族自治区北海市西藏路银河软件科技园专家创业区1号","lng":"109.10205348912169","lat":"21.468850848702374","stock_exchange":"SZ"},{"stock_code":"000807","stock_name":"云铝股份","company_name":"云南铝业股份有限公司","registered_address":"云南省昆明市呈贡区七甸街道","lng":"102.94968451964559","lat":"24.923960321573595","stock_exchange":"SZ"},{"stock_code":"000809","stock_name":"铁岭新城","company_name":"铁岭新城投资控股股份有限公司","registered_address":"辽宁省铁岭市凡河新区金沙江路12号","lng":"123.73999936872369","lat":"42.22920120557071","stock_exchange":"SZ"},{"stock_code":"000810","stock_name":"创维数字","company_name":"创维数字股份有限公司","registered_address":"四川省遂宁市经济技术开发区西宁片区台商工业园内","lng":"105.56488779226322","lat":"30.55749135037996","stock_exchange":"SZ"},{"stock_code":"000811","stock_name":"冰轮环境","company_name":"冰轮环境技术股份有限公司","registered_address":"山东省烟台市芝罘区冰轮路1号","lng":"121.31092457498764","lat":"37.54328525661442","stock_exchange":"SZ"},{"stock_code":"000812","stock_name":"陕西金叶","company_name":"陕西金叶科教集团股份有限公司","registered_address":"陕西省西安市高新区锦业路1号都市之门B座19层","lng":"108.89389603935801","lat":"34.2009312726087","stock_exchange":"SZ"},{"stock_code":"000813","stock_name":"德展健康","company_name":"德展大健康股份有限公司","registered_address":"新疆维吾尔自治区乌鲁木齐市天山区金银路53号金融大厦1611室","lng":"87.63504359037314","lat":"43.795802492310024","stock_exchange":"SZ"},{"stock_code":"000815","stock_name":"美利云","company_name":"中冶美利云产业投资股份有限公司","registered_address":"宁夏回族自治区中卫市城区柔远镇","lng":"105.2832927633879","lat":"37.50680443121392","stock_exchange":"SZ"},{"stock_code":"000816","stock_name":"*ST慧业","company_name":"江苏农华智慧农业科技股份有限公司","registered_address":"江苏省盐城经济技术开发区希望大道南路58号","lng":"120.2467030371308","lat":"33.34711203775612","stock_exchange":"SZ"},{"stock_code":"000818","stock_name":"航锦科技","company_name":"航锦科技股份有限公司","registered_address":"辽宁省葫芦岛市连山区化工街1号","lng":"120.83292463666527","lat":"40.755775042884785","stock_exchange":"SZ"},{"stock_code":"000819","stock_name":"岳阳兴长","company_name":"岳阳兴长石化股份有限公司","registered_address":"湖南省岳阳市云溪区","lng":"113.35377424951302","lat":"29.52621072659262","stock_exchange":"SZ"},{"stock_code":"000820","stock_name":"神雾节能","company_name":"神雾节能股份有限公司","registered_address":"辽宁省凌海市金城街","lng":"121.28557458802773","lat":"41.15256615509389","stock_exchange":"SZ"},{"stock_code":"000821","stock_name":"京山轻机","company_name":"湖北京山轻工机械股份有限公司","registered_address":"湖北省京山县经济技术开发区轻机工业园","lng":"113.11226093659681","lat":"31.085751895571967","stock_exchange":"SZ"},{"stock_code":"000822","stock_name":"山东海化","company_name":"山东海化股份有限公司","registered_address":"山东省潍坊滨海经济开发区","lng":"118.99093481556731","lat":"37.128155563069896","stock_exchange":"SZ"},{"stock_code":"000823","stock_name":"超声电子","company_name":"广东汕头超声电子股份有限公司","registered_address":"广东省汕头市龙湖区龙江路12号","lng":"116.71965196205059","lat":"23.429075156523744","stock_exchange":"SZ"},{"stock_code":"000825","stock_name":"太钢不锈","company_name":"山西太钢不锈钢股份有限公司","registered_address":"山西省太原市尖草坪街2号","lng":"112.56630152260047","lat":"37.92151611616105","stock_exchange":"SZ"},{"stock_code":"000826","stock_name":"启迪桑德","company_name":"启迪桑德环境资源股份有限公司","registered_address":"湖北省宜昌市沿江大道114号","lng":"111.29541741001714","lat":"30.696195743068788","stock_exchange":"SZ"},{"stock_code":"000828","stock_name":"东莞控股","company_name":"东莞发展控股股份有限公司","registered_address":"广东省东莞市南城区科技工业园科技路39号","lng":"113.8601516704063","lat":"22.917376652139627","stock_exchange":"SZ"},{"stock_code":"000829","stock_name":"天音控股","company_name":"天音通信控股股份有限公司","registered_address":"江西省赣州市经济技术开发区迎宾大道60号","lng":"114.87171630230782","lat":"25.853612492622144","stock_exchange":"SZ"},{"stock_code":"000830","stock_name":"鲁西化工","company_name":"鲁西化工集团股份有限公司","registered_address":"山东省聊城市鲁化路68号","lng":"116.01747491305383","lat":"36.4693051886755","stock_exchange":"SZ"},{"stock_code":"000831","stock_name":"五矿稀土","company_name":"五矿稀土股份有限公司","registered_address":"山西省运城市解州镇新建路36号","lng":"111.225541817618","lat":"35.141927514033206","stock_exchange":"SZ"},{"stock_code":"000833","stock_name":"粤桂股份","company_name":"广西粤桂广业控股股份有限公司","registered_address":"广西壮族自治区贵港市幸福路100号","lng":"109.48261660916064","lat":"23.30219035207079","stock_exchange":"SZ"},{"stock_code":"000835","stock_name":"长城动漫","company_name":"长城国际动漫游戏股份有限公司","registered_address":"四川省成都市高新区紫薇东路16号","lng":"104.05983016723563","lat":"30.617111458578016","stock_exchange":"SZ"},{"stock_code":"000836","stock_name":"鑫茂科技","company_name":"天津鑫茂科技股份有限公司","registered_address":"天津市滨海高新区华苑产业区榕苑路1号A区八层","lng":"117.12530534207563","lat":"39.10379506545548","stock_exchange":"SZ"},{"stock_code":"000837","stock_name":"秦川机床","company_name":"秦川机床工具集团股份公司","registered_address":"陕西省宝鸡市姜谭路22号","lng":"107.09514296409998","lat":"34.366409911145276","stock_exchange":"SZ"},{"stock_code":"000838","stock_name":"财信发展","company_name":"财信国兴地产发展股份有限公司","registered_address":"北京市朝阳区建国路91号院8号楼28层2808单元","lng":"116.48144555051113","lat":"39.91512372187289","stock_exchange":"SZ"},{"stock_code":"000839","stock_name":"中信国安","company_name":"中信国安信息产业股份有限公司","registered_address":"北京市海淀区宝盛南路1号院11号楼三层101-01室","lng":"116.38209406332842","lat":"40.03768886133678","stock_exchange":"SZ"},{"stock_code":"000848","stock_name":"承德露露","company_name":"河北承德露露股份有限公司","registered_address":"河北省承德市高新技术产业开发区（西区8号）","lng":"117.93382245583847","lat":"40.992521052457136","stock_exchange":"SZ"},{"stock_code":"000850","stock_name":"华茂股份","company_name":"安徽华茂纺织股份有限公司","registered_address":"安徽省安庆市纺织南路80号","lng":"117.05389033969354","lat":"30.52206835879225","stock_exchange":"SZ"},{"stock_code":"000851","stock_name":"高鸿股份","company_name":"大唐高鸿数据网络技术股份有限公司","registered_address":"贵州省贵阳市花溪区磊花路口","lng":"106.66527322286508","lat":"26.397916934770045","stock_exchange":"SZ"},{"stock_code":"000852","stock_name":"石化机械","company_name":"中石化石油机械股份有限公司","registered_address":"湖北省武汉市东湖新技术开发区庙山小区华工园一路5号","lng":"114.40812145975359","lat":"30.457726736324354","stock_exchange":"SZ"},{"stock_code":"000856","stock_name":"冀东装备","company_name":"唐山冀东装备工程股份有限公司","registered_address":"河北省唐山市曹妃甸装备制造产业园区","lng":"118.41596118318783","lat":"39.26603784107154","stock_exchange":"SZ"},{"stock_code":"000858","stock_name":"五粮液","company_name":"宜宾五粮液股份有限公司","registered_address":"四川省宜宾市翠屏区岷江西路150号","lng":"104.59250602202195","lat":"28.808252307739572","stock_exchange":"SZ"},{"stock_code":"000859","stock_name":"国风塑业","company_name":"安徽国风塑业股份有限公司","registered_address":"安徽省合肥市高新区铭传路1000号","lng":"117.19541963850304","lat":"31.799453050929348","stock_exchange":"SZ"},{"stock_code":"000860","stock_name":"顺鑫农业","company_name":"北京顺鑫农业股份有限公司","registered_address":"北京市顺义区站前街1号院1号楼顺鑫国际商务中心12层","lng":"116.65563077435527","lat":"40.13256396930861","stock_exchange":"SZ"},{"stock_code":"000861","stock_name":"海印股份","company_name":"广东海印集团股份有限公司","registered_address":"广东省广州市越秀区东华南路98号21-32层","lng":"113.29048656025331","lat":"23.123898861866184","stock_exchange":"SZ"},{"stock_code":"000862","stock_name":"银星能源","company_name":"宁夏银星能源股份有限公司","registered_address":"宁夏回族自治区银川市西夏区六盘山西路166号","lng":"106.09935165226317","lat":"38.45361234979783","stock_exchange":"SZ"},{"stock_code":"000863","stock_name":"三湘印象","company_name":"三湘印象股份有限公司","registered_address":"上海市杨浦区逸仙路333号501室","lng":"121.49435999112583","lat":"31.305151111439727","stock_exchange":"SZ"},{"stock_code":"000868","stock_name":"安凯客车","company_name":"安徽安凯汽车股份有限公司","registered_address":"安徽省合肥市葛淝路1号","lng":"117.37117698502358","lat":"31.805770985726465","stock_exchange":"SZ"},{"stock_code":"000869","stock_name":"张裕Ａ","company_name":"烟台张裕葡萄酿酒股份有限公司","registered_address":"山东省烟台市大马路56号","lng":"121.41204984455239","lat":"37.5475374149107","stock_exchange":"SZ"},{"stock_code":"000875","stock_name":"吉电股份","company_name":"吉林电力股份有限公司","registered_address":"吉林省长春市人民大街9699号","lng":"125.33188368837797","lat":"43.8282465864242","stock_exchange":"SZ"},{"stock_code":"000876","stock_name":"新希望","company_name":"新希望六和股份有限公司","registered_address":"四川省绵阳国家高新技术产业开发区","lng":"104.70551897529307","lat":"31.50470125806144","stock_exchange":"SZ"},{"stock_code":"000877","stock_name":"天山股份","company_name":"新疆天山水泥股份有限公司","registered_address":"新疆维吾尔自治区乌鲁木齐市达坂城区白杨沟村","lng":"88.01448165088829","lat":"43.6688605162565","stock_exchange":"SZ"},{"stock_code":"000878","stock_name":"云南铜业","company_name":"云南铜业股份有限公司","registered_address":"云南省昆明市国家高新技术产业开发区","lng":"102.66876411201292","lat":"25.054443318978564","stock_exchange":"SZ"},{"stock_code":"000880","stock_name":"潍柴重机","company_name":"潍柴重机股份有限公司","registered_address":"山东省潍坊滨海经济技术开发区富海大街17号","lng":"119.20564869686775","lat":"36.98812006629384","stock_exchange":"SZ"},{"stock_code":"000881","stock_name":"中广核技","company_name":"中广核核技术发展股份有限公司","registered_address":"辽宁省大连市西岗区黄河路219号外经贸大厦","lng":"121.62301290329764","lat":"38.92132704209967","stock_exchange":"SZ"},{"stock_code":"000882","stock_name":"华联股份","company_name":"北京华联商厦股份有限公司","registered_address":"北京市通州区永乐经济技术开发区永开路1号","lng":"116.74007918067626","lat":"39.80981488385131","stock_exchange":"SZ"},{"stock_code":"000883","stock_name":"湖北能源","company_name":"湖北能源集团股份有限公司","registered_address":"湖北省武汉市徐东大街96号","lng":"114.3546111432369","lat":"30.592039552792627","stock_exchange":"SZ"},{"stock_code":"000885","stock_name":"同力水泥","company_name":"河南同力水泥股份有限公司","registered_address":"河南省郑州市农业路41号投资大厦9层","lng":"113.65102777933315","lat":"34.79349427725351","stock_exchange":"SZ"},{"stock_code":"000886","stock_name":"海南高速","company_name":"海南高速公路股份有限公司","registered_address":"海南省海口市蓝天路16号高速公路大楼","lng":"110.355017000147","lat":"20.02709298851885","stock_exchange":"SZ"},{"stock_code":"000887","stock_name":"中鼎股份","company_name":"安徽中鼎密封件股份有限公司","registered_address":"安徽省宣城市宣南公路口","lng":"118.75209631098257","lat":"30.951642354295757","stock_exchange":"SZ"},{"stock_code":"000888","stock_name":"峨眉山Ａ","company_name":"峨眉山旅游股份有限公司","registered_address":"四川省峨眉山市名山南路41号","lng":"103.46068347984368","lat":"29.573792358539194","stock_exchange":"SZ"},{"stock_code":"000889","stock_name":"茂业通信","company_name":"茂业通信网络股份有限公司","registered_address":"河北省秦皇岛市河北大街146号金原国际商务大厦26层","lng":"119.61319997597735","lat":"39.94171825859561","stock_exchange":"SZ"},{"stock_code":"000890","stock_name":"法尔胜","company_name":"江苏法尔胜股份有限公司","registered_address":"江苏省江阴市澄江中路165号","lng":"120.2611531795643","lat":"31.918992414395795","stock_exchange":"SZ"},{"stock_code":"000892","stock_name":"欢瑞世纪","company_name":"欢瑞世纪联合股份有限公司","registered_address":"重庆市涪陵区人民东路50号","lng":"107.40937111722687","lat":"29.706839038823777","stock_exchange":"SZ"},{"stock_code":"000893","stock_name":"*ST东凌","company_name":"广州东凌国际投资股份有限公司","registered_address":"广东省广州市南沙区万顷沙镇红安路3号","lng":"113.57420501617568","lat":"22.652034030169798","stock_exchange":"SZ"},{"stock_code":"000895","stock_name":"双汇发展","company_name":"河南双汇投资发展股份有限公司","registered_address":"河南省漯河市双汇路1号","lng":"114.05573507260495","lat":"33.570845050775254","stock_exchange":"SZ"},{"stock_code":"000897","stock_name":"津滨发展","company_name":"天津津滨发展股份有限公司","registered_address":"天津市开发区明园路2号B2别墅5号","lng":"117.69516666659443","lat":"39.0311510461031","stock_exchange":"SZ"},{"stock_code":"000898","stock_name":"鞍钢股份","company_name":"鞍钢股份有限公司","registered_address":"辽宁省鞍山市铁西区鞍钢厂区","lng":"123.0142816133252","lat":"41.12439253971902","stock_exchange":"SZ"},{"stock_code":"000899","stock_name":"赣能股份","company_name":"江西赣能股份有限公司","registered_address":"江西省南昌市高新技术开发区火炬大街199号","lng":"115.96196337007342","lat":"28.695364729014035","stock_exchange":"SZ"},{"stock_code":"000900","stock_name":"现代投资","company_name":"现代投资股份有限公司","registered_address":"湖南省长沙市天心区芙蓉南路二段128号现代广场","lng":"112.99373418006367","lat":"28.10129810614054","stock_exchange":"SZ"},{"stock_code":"000901","stock_name":"航天科技","company_name":"航天科技控股集团股份有限公司","registered_address":"黑龙江省哈尔滨市平房区哈平西路45号","lng":"126.65706953649561","lat":"45.62758683372917","stock_exchange":"SZ"},{"stock_code":"000902","stock_name":"新洋丰","company_name":"湖北新洋丰肥业股份有限公司","registered_address":"湖北省荆门市月亮湖北路附7号","lng":"112.22541237609768","lat":"31.0509944733985","stock_exchange":"SZ"},{"stock_code":"000903","stock_name":"云内动力","company_name":"昆明云内动力股份有限公司","registered_address":"云南省昆明市经济技术开发区经景路66号","lng":"102.8189778610363","lat":"24.96327152442774","stock_exchange":"SZ"},{"stock_code":"000905","stock_name":"厦门港务","company_name":"厦门港务发展股份有限公司","registered_address":"福建省厦门市东港北路31号港务大厦20楼、21楼","lng":"118.08236882868867","lat":"24.491055438879037","stock_exchange":"SZ"},{"stock_code":"000906","stock_name":"浙商中拓","company_name":"浙商中拓集团股份有限公司","registered_address":"浙江省杭州市萧山经济技术开发区启迪路198号","lng":"120.25458124382622","lat":"30.209305569857847","stock_exchange":"SZ"},{"stock_code":"000908","stock_name":"景峰医药","company_name":"湖南景峰医药股份有限公司","registered_address":"湖南省平江县天岳开发区天岳大道48号","lng":"113.60026394714589","lat":"28.70276236478915","stock_exchange":"SZ"},{"stock_code":"000910","stock_name":"大亚圣象","company_name":"大亚圣象家居股份有限公司","registered_address":"江苏省丹阳市经济开发区齐梁路99号","lng":"119.61608268776567","lat":"32.02895465692795","stock_exchange":"SZ"},{"stock_code":"000911","stock_name":"南宁糖业","company_name":"南宁糖业股份有限公司","registered_address":"广西壮族自治区南宁市青秀区古城路10号","lng":"108.34305512279612","lat":"22.82036248140395","stock_exchange":"SZ"},{"stock_code":"000912","stock_name":"*ST天化","company_name":"四川泸天化股份有限公司","registered_address":"四川省成都市","lng":"104.06792346330406","lat":"30.679942845419564","stock_exchange":"SZ"},{"stock_code":"000913","stock_name":"钱江摩托","company_name":"浙江钱江摩托股份有限公司","registered_address":"浙江省温岭市经济开发区","lng":"121.42104597878073","lat":"28.4005538171066","stock_exchange":"SZ"},{"stock_code":"000915","stock_name":"山大华特","company_name":"山东山大华特科技股份有限公司","registered_address":"山东省沂南县县城振兴路6号","lng":"118.46459076452406","lat":"35.54969589838076","stock_exchange":"SZ"},{"stock_code":"000917","stock_name":"电广传媒","company_name":"湖南电广传媒股份有限公司","registered_address":"湖南省长沙市浏阳河大桥东","lng":"113.11738558403044","lat":"28.101707072397176","stock_exchange":"SZ"},{"stock_code":"000918","stock_name":"嘉凯城","company_name":"嘉凯城集团股份有限公司","registered_address":"浙江省杭州市惠民路56号1号楼318室","lng":"120.17486021046143","lat":"30.248699065378354","stock_exchange":"SZ"},{"stock_code":"000919","stock_name":"金陵药业","company_name":"金陵药业股份有限公司","registered_address":"江苏省南京市南京经济技术开发区新港大道58号","lng":"118.89186091826178","lat":"32.1735957424317","stock_exchange":"SZ"},{"stock_code":"000920","stock_name":"南方汇通","company_name":"南方汇通股份有限公司","registered_address":"贵州省贵阳市国家高新技术产业开发区","lng":"106.7091770961758","lat":"26.62990674144093","stock_exchange":"SZ"},{"stock_code":"000921","stock_name":"海信科龙","company_name":"海信科龙电器股份有限公司","registered_address":"广东省佛山市顺德区容桂街道容港路8号","lng":"113.299217371163","lat":"22.783899843987005","stock_exchange":"SZ"},{"stock_code":"000922","stock_name":"*ST佳电","company_name":"哈尔滨电气集团佳木斯电机股份有限公司","registered_address":"黑龙江省佳木斯市长安东路247号","lng":"130.3947859719128","lat":"46.8229884540947","stock_exchange":"SZ"},{"stock_code":"000923","stock_name":"河北宣工","company_name":"河北宣化工程机械股份有限公司","registered_address":"河北省张家口市宣化区东升路21号","lng":"115.08390950846592","lat":"40.6087809317752","stock_exchange":"SZ"},{"stock_code":"000925","stock_name":"众合科技","company_name":"浙江众合科技股份有限公司","registered_address":"浙江省杭州市滨江区江汉路1785号双城国际4号楼17层","lng":"120.20785056295949","lat":"30.212957140052588","stock_exchange":"SZ"},{"stock_code":"000926","stock_name":"福星股份","company_name":"湖北福星科技股份有限公司","registered_address":"湖北省汉川市沉湖镇福星街1号","lng":"113.86300543282985","lat":"30.66977407355691","stock_exchange":"SZ"},{"stock_code":"000927","stock_name":"一汽夏利","company_name":"天津一汽夏利汽车股份有限公司","registered_address":"天津市西青区京福公路578号","lng":"117.03955599692502","lat":"39.19972025923974","stock_exchange":"SZ"},{"stock_code":"000928","stock_name":"中钢国际","company_name":"中钢国际工程技术股份有限公司","registered_address":"吉林省吉林市昌邑区江湾路2号10楼1002、1003","lng":"126.57397431024654","lat":"43.84518518224702","stock_exchange":"SZ"},{"stock_code":"000929","stock_name":"兰州黄河","company_name":"兰州黄河企业股份有限公司","registered_address":"甘肃省兰州市七里河区郑家庄108号","lng":"103.75481063372943","lat":"36.08439867148284","stock_exchange":"SZ"},{"stock_code":"000930","stock_name":"中粮生化","company_name":"中粮生物化学(安徽)股份有限公司","registered_address":"安徽省蚌埠市中粮大道1号","lng":"117.32058063503881","lat":"32.94833287956305","stock_exchange":"SZ"},{"stock_code":"000931","stock_name":"中关村","company_name":"北京中关村科技发展(控股)股份有限公司","registered_address":"北京市海淀区中关村南大街32号","lng":"116.33146200749624","lat":"39.95479521958764","stock_exchange":"SZ"},{"stock_code":"000932","stock_name":"华菱钢铁","company_name":"湖南华菱钢铁股份有限公司","registered_address":"湖南省长沙市天心区湘府西路222号华菱园主楼","lng":"112.97525908906995","lat":"28.118773769166417","stock_exchange":"SZ"},{"stock_code":"000933","stock_name":"神火股份","company_name":"河南神火煤电股份有限公司","registered_address":"河南省永城市东城区光明路17号","lng":"116.4494138328228","lat":"33.927474859376765","stock_exchange":"SZ"},{"stock_code":"000935","stock_name":"四川双马","company_name":"四川双马水泥股份有限公司","registered_address":"四川省江油市二朗庙镇","lng":"104.93314929992522","lat":"31.952426668806112","stock_exchange":"SZ"},{"stock_code":"000936","stock_name":"华西股份","company_name":"江苏华西村股份有限公司","registered_address":"江苏省江阴市华西村","lng":"120.42531491829072","lat":"31.83138187930411","stock_exchange":"SZ"},{"stock_code":"000937","stock_name":"冀中能源","company_name":"冀中能源股份有限公司","registered_address":"河北省邢台市中兴西大街191号","lng":"114.4801188973775","lat":"37.06753995635647","stock_exchange":"SZ"},{"stock_code":"000938","stock_name":"紫光股份","company_name":"紫光股份有限公司","registered_address":"北京市清华大学紫光大楼","lng":"116.33873720416047","lat":"40.00172963158232","stock_exchange":"SZ"},{"stock_code":"000939","stock_name":"*ST凯迪","company_name":"凯迪生态环境科技股份有限公司","registered_address":"湖北省武汉市东湖开发区江夏大道特1号凯迪大厦","lng":"114.38892554505664","lat":"30.44083618311139","stock_exchange":"SZ"},{"stock_code":"000948","stock_name":"南天信息","company_name":"云南南天电子信息产业股份有限公司","registered_address":"云南省昆明市高新技术产业开发区高新区产业研发基地","lng":"102.66876411201292","lat":"25.054443318978564","stock_exchange":"SZ"},{"stock_code":"000949","stock_name":"新乡化纤","company_name":"新乡化纤股份有限公司","registered_address":"河南省新乡经济技术开发区","lng":"113.89290102942226","lat":"35.29669781359802","stock_exchange":"SZ"},{"stock_code":"000950","stock_name":"重药控股","company_name":"重药控股股份有限公司","registered_address":"重庆市涪陵区白涛街道","lng":"107.52770272272801","lat":"29.573569063866795","stock_exchange":"SZ"},{"stock_code":"000951","stock_name":"中国重汽","company_name":"中国重汽集团济南卡车股份有限公司","registered_address":"山东省济南市市中区党家庄镇南首","lng":"116.90503699256959","lat":"36.58990528922529","stock_exchange":"SZ"},{"stock_code":"000952","stock_name":"广济药业","company_name":"湖北广济药业股份有限公司","registered_address":"湖北省武穴市江堤路1号","lng":"115.62583375391729","lat":"30.015614310619696","stock_exchange":"SZ"},{"stock_code":"000953","stock_name":"ST河化","company_name":"广西河池化工股份有限公司","registered_address":"广西壮族自治区河池市六甲镇","lng":"107.93411344745158","lat":"24.764367549689887","stock_exchange":"SZ"},{"stock_code":"000955","stock_name":"欣龙控股","company_name":"欣龙控股(集团)股份有限公司","registered_address":"海南省澄迈县老城工业开发区","lng":"110.08530613015589","lat":"19.954547333008662","stock_exchange":"SZ"},{"stock_code":"000957","stock_name":"中通客车","company_name":"中通客车控股股份有限公司","registered_address":"山东省聊城市经济开发区黄河路261号","lng":"116.05420436839631","lat":"36.45417936789504","stock_exchange":"SZ"},{"stock_code":"000958","stock_name":"东方能源","company_name":"国家电投集团东方新能源股份有限公司","registered_address":"河北省石家庄市建华南大街161号","lng":"114.55314041226583","lat":"38.038394012604016","stock_exchange":"SZ"},{"stock_code":"000959","stock_name":"首钢股份","company_name":"北京首钢股份有限公司","registered_address":"北京市石景山区石景山路","lng":"116.18455581036746","lat":"39.93886654464553","stock_exchange":"SZ"},{"stock_code":"000960","stock_name":"锡业股份","company_name":"云南锡业股份有限公司","registered_address":"云南省昆明高新技术产业开发区","lng":"102.66876411201292","lat":"25.054443318978564","stock_exchange":"SZ"},{"stock_code":"000961","stock_name":"中南建设","company_name":"江苏中南建设集团股份有限公司","registered_address":"江苏省海门市常乐镇","lng":"121.29146143775739","lat":"31.95343675999243","stock_exchange":"SZ"},{"stock_code":"000962","stock_name":"东方钽业","company_name":"宁夏东方钽业股份有限公司","registered_address":"宁夏回族自治区石嘴山市大武口区冶金路","lng":"106.38592516213922","lat":"39.03042801709832","stock_exchange":"SZ"},{"stock_code":"000963","stock_name":"华东医药","company_name":"华东医药股份有限公司","registered_address":"浙江省杭州市延安路468号1号楼1号门9、10楼","lng":"120.17122740818246","lat":"30.27096481816571","stock_exchange":"SZ"},{"stock_code":"000965","stock_name":"天保基建","company_name":"天津天保基建股份有限公司","registered_address":"天津市天津空港经济区西五道35号汇津广场一号楼","lng":"117.40615726029411","lat":"39.15310798743069","stock_exchange":"SZ"},{"stock_code":"000966","stock_name":"长源电力","company_name":"国电长源电力股份有限公司","registered_address":"湖北省武汉市洪山区徐东大街113号国电大厦","lng":"114.36193461933074","lat":"30.588517485915776","stock_exchange":"SZ"},{"stock_code":"000967","stock_name":"盈峰环境","company_name":"盈峰环境科技集团股份有限公司","registered_address":"浙江省绍兴市上虞区人民西路1818号","lng":"120.81735879878836","lat":"30.026248872485322","stock_exchange":"SZ"},{"stock_code":"000968","stock_name":"蓝焰控股","company_name":"山西蓝焰控股股份有限公司","registered_address":"山西省太原市和平南路83号","lng":"112.51762314111683","lat":"37.853865002207776","stock_exchange":"SZ"},{"stock_code":"000969","stock_name":"安泰科技","company_name":"安泰科技股份有限公司","registered_address":"北京市海淀区学院南路76号","lng":"116.33711100169573","lat":"39.96277196653644","stock_exchange":"SZ"},{"stock_code":"000970","stock_name":"中科三环","company_name":"北京中科三环高技术股份有限公司","registered_address":"北京市海淀区中关村东路66号甲1号楼27层","lng":"116.34047901854431","lat":"39.9905273218562","stock_exchange":"SZ"},{"stock_code":"000971","stock_name":"高升控股","company_name":"高升控股股份有限公司","registered_address":"湖北省仙桃市勉阳大道131号","lng":"113.38744819357841","lat":"30.293966004922325","stock_exchange":"SZ"},{"stock_code":"000972","stock_name":"*ST中基","company_name":"中基健康产业股份有限公司","registered_address":"新疆维吾尔自治区乌鲁木齐市青年路17号","lng":"87.62904290732072","lat":"43.80891088552425","stock_exchange":"SZ"},{"stock_code":"000973","stock_name":"佛塑科技","company_name":"佛山佛塑科技集团股份有限公司","registered_address":"广东省佛山市禅城区汾江中路85号","lng":"113.11482512497179","lat":"23.038090456303955","stock_exchange":"SZ"},{"stock_code":"000975","stock_name":"银泰资源","company_name":"银泰资源股份有限公司","registered_address":"内蒙古自治区锡林郭勒盟西乌珠穆沁旗巴拉嘎尔高勒镇哈拉图街","lng":"117.4245013343336","lat":"44.534763281427104","stock_exchange":"SZ"},{"stock_code":"000976","stock_name":"华铁股份","company_name":"广东华铁通达高铁装备股份有限公司","registered_address":"广东省开平市三埠区港口路10号19幢","lng":"112.72976984857056","lat":"22.378805557605776","stock_exchange":"SZ"},{"stock_code":"000977","stock_name":"浪潮信息","company_name":"浪潮电子信息产业股份有限公司","registered_address":"山东省济南市浪潮路1036号","lng":"117.1334256250382","lat":"36.668087208368235","stock_exchange":"SZ"},{"stock_code":"000978","stock_name":"桂林旅游","company_name":"桂林旅游股份有限公司","registered_address":"广西壮族自治区桂林市翠竹路27-2号","lng":"110.27621703268494","lat":"25.26284634900892","stock_exchange":"SZ"},{"stock_code":"000979","stock_name":"中弘股份","company_name":"中弘控股股份有限公司","registered_address":"安徽省宿州市浍水路271号","lng":"116.97702324359499","lat":"33.632521807965546","stock_exchange":"SZ"},{"stock_code":"000980","stock_name":"众泰汽车","company_name":"众泰汽车股份有限公司","registered_address":"安徽省黄山市歙县经济技术开发区","lng":"118.57515564084132","lat":"29.871177014075467","stock_exchange":"SZ"},{"stock_code":"000981","stock_name":"银亿股份","company_name":"银亿股份有限公司","registered_address":"甘肃省兰州市城关区天水路318号兰州大学科技广场","lng":"103.86256879120994","lat":"36.05264896609505","stock_exchange":"SZ"},{"stock_code":"000982","stock_name":"*ST中绒","company_name":"宁夏中银绒业股份有限公司","registered_address":"宁夏回族自治区灵武生态纺织园区（灵武市南二环北侧经二路东侧）","lng":"106.33222377244734","lat":"38.07514982803018","stock_exchange":"SZ"},{"stock_code":"000983","stock_name":"西山煤电","company_name":"山西西山煤电股份有限公司","registered_address":"山西省太原市西矿街318号西山大厦","lng":"112.46441978098272","lat":"37.85938084676663","stock_exchange":"SZ"},{"stock_code":"000985","stock_name":"大庆华科","company_name":"大庆华科股份有限公司","registered_address":"黑龙江省大庆高新技术产业开发区建设路293号","lng":"125.1588425097768","lat":"46.57894028527545","stock_exchange":"SZ"},{"stock_code":"000987","stock_name":"越秀金控","company_name":"广州越秀金融控股集团股份有限公司","registered_address":"广东省广州市天河区珠江西路5号广州国际金融中心主塔写字楼第63层01-B单元","lng":"113.3293493227048","lat":"23.12374032695532","stock_exchange":"SZ"},{"stock_code":"000988","stock_name":"华工科技","company_name":"华工科技产业股份有限公司","registered_address":"湖北省武汉市东湖高新技术开发区华中科技大学科技园华工科技本部大楼","lng":"114.40613767869587","lat":"30.454712249980314","stock_exchange":"SZ"},{"stock_code":"000989","stock_name":"九芝堂","company_name":"九芝堂股份有限公司","registered_address":"湖南省长沙市桐梓坡西路339号","lng":"112.87720243352796","lat":"28.226161601586426","stock_exchange":"SZ"},{"stock_code":"000990","stock_name":"诚志股份","company_name":"诚志股份有限公司","registered_address":"江西省南昌市经济开发区玉屏东大道299号","lng":"115.88188581005784","lat":"28.74964651604324","stock_exchange":"SZ"},{"stock_code":"000993","stock_name":"闽东电力","company_name":"福建闽东电力股份有限公司","registered_address":"福建省宁德市蕉城区蕉城南路68号东晟泰丽园1号楼3层","lng":"119.54002664435637","lat":"26.653503291477367","stock_exchange":"SZ"},{"stock_code":"000995","stock_name":"*ST皇台","company_name":"甘肃皇台酒业股份有限公司","registered_address":"甘肃省武威市新建路55号","lng":"102.59374772940353","lat":"37.94887885142834","stock_exchange":"SZ"},{"stock_code":"000996","stock_name":"中国中期","company_name":"中国中期投资股份有限公司","registered_address":"北京市朝阳区麦子店西路3号12层1316","lng":"116.46918517777522","lat":"39.912297621056716","stock_exchange":"SZ"},{"stock_code":"000997","stock_name":"新大陆","company_name":"福建新大陆电脑股份有限公司","registered_address":"福建省福州市马尾区儒江西路1号","lng":"119.41749716198811","lat":"26.02498578524147","stock_exchange":"SZ"},{"stock_code":"000998","stock_name":"隆平高科","company_name":"袁隆平农业高科技股份有限公司","registered_address":"湖南省长沙市芙蓉区远大二路马坡岭农业高科技园内","lng":"113.02096885648916","lat":"28.203810552354742","stock_exchange":"SZ"},{"stock_code":"000999","stock_name":"华润三九","company_name":"华润三九医药股份有限公司","registered_address":"广东省深圳市龙华区观湖街道观澜高新园区观清路1号","lng":"114.06485402656098","lat":"22.69155058977619","stock_exchange":"SZ"},{"stock_code":"001696","stock_name":"宗申动力","company_name":"重庆宗申动力机械股份有限公司","registered_address":"重庆市巴南区炒油场","lng":"106.75827415920337","lat":"29.378027968889498","stock_exchange":"SZ"},{"stock_code":"001896","stock_name":"豫能控股","company_name":"河南豫能控股股份有限公司","registered_address":"河南省郑州市金水区农业路东41号B座8-12层","lng":"113.70389075264511","lat":"34.79196843420261","stock_exchange":"SZ"},{"stock_code":"001965","stock_name":"招商公路","company_name":"招商局公路网络科技控股股份有限公司","registered_address":"北京市朝阳区建国路118号招商局大厦五层","lng":"116.47095204679803","lat":"39.91309102677935","stock_exchange":"SZ"},{"stock_code":"001979","stock_name":"招商蛇口","company_name":"招商局蛇口工业区控股股份有限公司","registered_address":"广东省深圳南山区蛇口兴华路6号南海意库3号楼","lng":"113.9232056205724","lat":"22.492665514782068","stock_exchange":"SZ"},{"stock_code":"002001","stock_name":"新和成","company_name":"浙江新和成股份有限公司","registered_address":"浙江省新昌县羽林街道江北路4号","lng":"120.9249479343794","lat":"29.5019954685971","stock_exchange":"SZ"},{"stock_code":"002002","stock_name":"鸿达兴业","company_name":"鸿达兴业股份有限公司","registered_address":"江苏省扬州市广陵区杭集镇曙光路","lng":"119.55479693699203","lat":"32.37800067856747","stock_exchange":"SZ"},{"stock_code":"002003","stock_name":"伟星股份","company_name":"浙江伟星实业发展股份有限公司","registered_address":"浙江省临海市花园工业区","lng":"121.22191927301837","lat":"28.857388590573088","stock_exchange":"SZ"},{"stock_code":"002004","stock_name":"华邦健康","company_name":"华邦生命健康股份有限公司","registered_address":"重庆市渝北区人和星光大道69号","lng":"106.51454384647914","lat":"29.626250436080767","stock_exchange":"SZ"},{"stock_code":"002005","stock_name":"德豪润达","company_name":"广东德豪润达电气股份有限公司","registered_address":"广东省珠海市香洲区唐家湾镇金凤路1号","lng":"113.55903062481113","lat":"22.373597685239083","stock_exchange":"SZ"},{"stock_code":"002006","stock_name":"精功科技","company_name":"浙江精功科技股份有限公司","registered_address":"浙江省绍兴市柯桥区鉴湖路1809号","lng":"120.45427109842149","lat":"30.094833457915602","stock_exchange":"SZ"},{"stock_code":"002007","stock_name":"华兰生物","company_name":"华兰生物工程股份有限公司","registered_address":"河南省新乡市华兰大道甲1号","lng":"113.91013322402017","lat":"35.28783355745123","stock_exchange":"SZ"},{"stock_code":"002008","stock_name":"大族激光","company_name":"大族激光科技产业集团股份有限公司","registered_address":"广东省深圳市南山区深南大道9988号","lng":"113.94195616706929","lat":"22.546033011512634","stock_exchange":"SZ"},{"stock_code":"002009","stock_name":"天奇股份","company_name":"天奇自动化工程股份有限公司","registered_address":"江苏省无锡市惠山区洛社镇洛藕路288号","lng":"120.19391213756482","lat":"31.624479802314422","stock_exchange":"SZ"},{"stock_code":"002010","stock_name":"传化智联","company_name":"传化智联股份有限公司","registered_address":"浙江省杭州市萧山经济技术开发区","lng":"120.28510200446031","lat":"30.2015088770226","stock_exchange":"SZ"},{"stock_code":"002011","stock_name":"盾安环境","company_name":"浙江盾安人工环境股份有限公司","registered_address":"中国浙江省诸暨市店口工业区","lng":"120.37425307199673","lat":"29.940912484500736","stock_exchange":"SZ"},{"stock_code":"002012","stock_name":"凯恩股份","company_name":"浙江凯恩特种材料股份有限公司","registered_address":"浙江省遂昌县妙高镇凯恩路1008号","lng":"119.25722411933012","lat":"28.57174238442781","stock_exchange":"SZ"},{"stock_code":"002013","stock_name":"中航机电","company_name":"中航工业机电系统股份有限公司","registered_address":"湖北省襄阳市高新区追日路8号","lng":"112.13356251695755","lat":"32.08308404103591","stock_exchange":"SZ"},{"stock_code":"002014","stock_name":"永新股份","company_name":"黄山永新股份有限公司","registered_address":"安徽省黄山市徽州区徽州东路188号","lng":"118.35917360201856","lat":"29.833676243331713","stock_exchange":"SZ"},{"stock_code":"002015","stock_name":"霞客环保","company_name":"江苏霞客环保色纺股份有限公司","registered_address":"江苏省江阴市徐霞客镇马镇东街7号","lng":"120.32547332131107","lat":"31.72013174339379","stock_exchange":"SZ"},{"stock_code":"002016","stock_name":"世荣兆业","company_name":"广东世荣兆业股份有限公司","registered_address":"广东省珠海市斗门区井岸镇珠峰大道288号1区17号楼","lng":"113.31341980584745","lat":"22.176670208015167","stock_exchange":"SZ"},{"stock_code":"002017","stock_name":"东信和平","company_name":"东信和平科技股份有限公司","registered_address":"广东省珠海市高新区南屏科技工业园屏工中路8号","lng":"113.49521040028255","lat":"22.224872841353555","stock_exchange":"SZ"},{"stock_code":"002018","stock_name":"*ST华信","company_name":"安徽华信国际控股股份有限公司","registered_address":"安徽省马鞍山市和县乌江镇","lng":"118.41063863680387","lat":"31.833394539988703","stock_exchange":"SZ"},{"stock_code":"002019","stock_name":"亿帆医药","company_name":"亿帆医药股份有限公司","registered_address":"浙江省杭州市临安经济开发区","lng":"119.86806726467509","lat":"30.259069460774647","stock_exchange":"SZ"},{"stock_code":"002020","stock_name":"京新药业","company_name":"浙江京新药业股份有限公司","registered_address":"浙江省新昌县羽林街道新昌大道东路800号","lng":"120.95789169804792","lat":"29.49034293586883","stock_exchange":"SZ"},{"stock_code":"002021","stock_name":"中捷资源","company_name":"中捷资源投资股份有限公司","registered_address":"浙江省玉环县大麦屿街道兴港东路198号","lng":"121.17960649721626","lat":"28.1030963624287","stock_exchange":"SZ"},{"stock_code":"002022","stock_name":"科华生物","company_name":"上海科华生物工程股份有限公司","registered_address":"上海市徐汇区钦州北路1189号","lng":"121.4086761342435","lat":"31.183637976152447","stock_exchange":"SZ"},{"stock_code":"002023","stock_name":"海特高新","company_name":"四川海特高新技术股份有限公司","registered_address":"四川省成都市高新区高朋大道21号","lng":"104.04262313776827","lat":"30.625402554649362","stock_exchange":"SZ"},{"stock_code":"002024","stock_name":"苏宁易购","company_name":"苏宁易购集团股份有限公司","registered_address":"江苏省南京市山西路8号金山大厦1-5层","lng":"118.7788916693108","lat":"32.0745711181489","stock_exchange":"SZ"},{"stock_code":"002025","stock_name":"航天电器","company_name":"贵州航天电器股份有限公司","registered_address":"贵州省贵阳经济技术开发区红河路7号","lng":"106.70381681736897","lat":"26.506311277829564","stock_exchange":"SZ"},{"stock_code":"002026","stock_name":"山东威达","company_name":"山东威达机械股份有限公司","registered_address":"山东省威海临港经济技术开发区苘山镇中韩路2号","lng":"122.08087625778855","lat":"37.28797672007613","stock_exchange":"SZ"},{"stock_code":"002027","stock_name":"分众传媒","company_name":"分众传媒信息技术股份有限公司","registered_address":"广东省广州市黄埔区中新知识城凤凰三路8号2号楼2130室","lng":"113.49288457424916","lat":"23.10871181423915","stock_exchange":"SZ"},{"stock_code":"002028","stock_name":"思源电气","company_name":"思源电气股份有限公司","registered_address":"上海市闵行区金都路4399号","lng":"121.37779633526995","lat":"31.07850199394639","stock_exchange":"SZ"},{"stock_code":"002029","stock_name":"七匹狼","company_name":"福建七匹狼实业股份有限公司","registered_address":"福建省晋江市金井镇南工业区","lng":"118.61685848425307","lat":"24.575299153606817","stock_exchange":"SZ"},{"stock_code":"002030","stock_name":"达安基因","company_name":"中山大学达安基因股份有限公司","registered_address":"广东省广州市高新技术开发区科学城香山路19号","lng":"113.44794604151778","lat":"23.18597213949012","stock_exchange":"SZ"},{"stock_code":"002031","stock_name":"巨轮智能","company_name":"巨轮智能装备股份有限公司","registered_address":"广东省揭东经济开发区5号路中段","lng":"116.37807073324828","lat":"23.58502481083304","stock_exchange":"SZ"},{"stock_code":"002032","stock_name":"苏泊尔","company_name":"浙江苏泊尔股份有限公司","registered_address":"浙江省玉环县大麦屿经济开发区","lng":"121.16337258953695","lat":"28.091299041845563","stock_exchange":"SZ"},{"stock_code":"002033","stock_name":"丽江旅游","company_name":"丽江玉龙旅游股份有限公司","registered_address":"云南省丽江市古城区香格里大道760号丽江玉龙旅游大厦","lng":"100.22737995545982","lat":"26.89312959071256","stock_exchange":"SZ"},{"stock_code":"002034","stock_name":"旺能环境","company_name":"旺能环境股份有限公司","registered_address":"浙江省湖州市天字圩路288号","lng":"120.13724316328172","lat":"30.877925155690896","stock_exchange":"SZ"},{"stock_code":"002035","stock_name":"华帝股份","company_name":"华帝股份有限公司","registered_address":"广东省中山市小榄镇工业大道南华园路1号","lng":"113.29488640314818","lat":"22.587700811202943","stock_exchange":"SZ"},{"stock_code":"002036","stock_name":"联创电子","company_name":"联创电子科技股份有限公司","registered_address":"江西省南昌市南昌高新技术产业开发区京东大道1699号","lng":"115.9799448655455","lat":"28.730486414993994","stock_exchange":"SZ"},{"stock_code":"002037","stock_name":"久联发展","company_name":"贵州久联民爆器材发展股份有限公司","registered_address":"贵州省贵阳市高新技术开发区新天园区","lng":"106.75864570262733","lat":"26.63684960337013","stock_exchange":"SZ"},{"stock_code":"002038","stock_name":"双鹭药业","company_name":"北京双鹭药业股份有限公司","registered_address":"北京市海淀区西三环北路100号金玉大厦1103-1105室","lng":"116.31796191297009","lat":"39.931089920351646","stock_exchange":"SZ"},{"stock_code":"002039","stock_name":"黔源电力","company_name":"贵州黔源电力股份有限公司","registered_address":"贵州省贵阳市都司高架桥路46号黔源大厦","lng":"106.72474251364056","lat":"26.58026205700278","stock_exchange":"SZ"},{"stock_code":"002040","stock_name":"南京港","company_name":"南京港股份有限公司","registered_address":"江苏省南京市栖霞区和燕路251号1幢1101室","lng":"118.81102350584312","lat":"32.106553892732386","stock_exchange":"SZ"},{"stock_code":"002041","stock_name":"登海种业","company_name":"山东登海种业股份有限公司","registered_address":"山东省莱州市农科院城山路西侧","lng":"120.001343529444","lat":"37.19040137439831","stock_exchange":"SZ"},{"stock_code":"002042","stock_name":"华孚时尚","company_name":"华孚时尚股份有限公司","registered_address":"安徽省淮北市烈山区石山路6号","lng":"116.84084612177669","lat":"33.84767610356029","stock_exchange":"SZ"},{"stock_code":"002043","stock_name":"兔宝宝","company_name":"德华兔宝宝装饰新材股份有限公司","registered_address":"浙江省德清县洛舍镇工业区","lng":"120.11718289632813","lat":"30.634291122127777","stock_exchange":"SZ"},{"stock_code":"002044","stock_name":"美年健康","company_name":"美年大健康产业控股股份有限公司","registered_address":"江苏省南通市人民东路218号","lng":"120.88996130985124","lat":"32.027346055969765","stock_exchange":"SZ"},{"stock_code":"002045","stock_name":"国光电器","company_name":"国光电器股份有限公司","registered_address":"广东省广州市花都区新雅街镜湖大道8号","lng":"113.25637969666172","lat":"23.378862984304483","stock_exchange":"SZ"},{"stock_code":"002046","stock_name":"轴研科技","company_name":"洛阳轴研科技股份有限公司","registered_address":"河南省洛阳市高新技术开发区丰华路6号","lng":"112.40108599964638","lat":"34.6247859869991","stock_exchange":"SZ"},{"stock_code":"002047","stock_name":"宝鹰股份","company_name":"深圳市宝鹰建设控股集团股份有限公司","registered_address":"广东省深圳市南山区沙河街道华侨城东部工业区F1栋107号","lng":"113.99966723860629","lat":"22.5432802116937","stock_exchange":"SZ"},{"stock_code":"002048","stock_name":"宁波华翔","company_name":"宁波华翔电子股份有限公司","registered_address":"浙江省象山县西周镇象西开发区","lng":"121.66735636131489","lat":"29.47411212792828","stock_exchange":"SZ"},{"stock_code":"002049","stock_name":"紫光国微","company_name":"紫光国芯微电子股份有限公司","registered_address":"河北省玉田县无终西街3129号","lng":"117.72396831751645","lat":"39.89463738103312","stock_exchange":"SZ"},{"stock_code":"002050","stock_name":"三花智控","company_name":"浙江三花智能控制股份有限公司","registered_address":"浙江省新昌县七星街道下礼泉","lng":"120.89079974873438","lat":"29.52572030649754","stock_exchange":"SZ"},{"stock_code":"002051","stock_name":"中工国际","company_name":"中工国际工程股份有限公司","registered_address":"北京市海淀区丹棱街3号","lng":"116.31834632933851","lat":"39.98563927120906","stock_exchange":"SZ"},{"stock_code":"002052","stock_name":"同洲电子","company_name":"深圳市同洲电子股份有限公司","registered_address":"广东省深圳市南山区高新科技园北区彩虹科技大厦六楼","lng":"113.94715719966518","lat":"22.560426482275993","stock_exchange":"SZ"},{"stock_code":"002053","stock_name":"云南能投","company_name":"云南能源投资股份有限公司","registered_address":"云南省昆明市官渡区春城路276号","lng":"102.74081130855183","lat":"25.007549157351654","stock_exchange":"SZ"},{"stock_code":"002054","stock_name":"德美化工","company_name":"广东德美精细化工集团股份有限公司","registered_address":"广东省佛山市顺德高新区科技产业园朝桂南路","lng":"113.29442455194666","lat":"22.783915837781773","stock_exchange":"SZ"},{"stock_code":"002055","stock_name":"得润电子","company_name":"深圳市得润电子股份有限公司","registered_address":"广东省深圳市光明新区光明街道三十三路9号得润电子工业园","lng":"113.95066834712273","lat":"22.74397600690873","stock_exchange":"SZ"},{"stock_code":"002056","stock_name":"横店东磁","company_name":"横店集团东磁股份有限公司","registered_address":"浙江省东阳市横店工业区","lng":"120.27884130937151","lat":"29.177098903164758","stock_exchange":"SZ"},{"stock_code":"002057","stock_name":"中钢天源","company_name":"中钢集团安徽天源科技股份有限公司","registered_address":"安徽省马鞍山市雨山区霍里山大道南段9号","lng":"118.55389701292339","lat":"31.649122876678902","stock_exchange":"SZ"},{"stock_code":"002058","stock_name":"威尔泰","company_name":"上海威尔泰工业自动化股份有限公司","registered_address":"上海市闵行区虹中路263号1幢","lng":"121.3898881894854","lat":"31.187324653683696","stock_exchange":"SZ"},{"stock_code":"002059","stock_name":"云南旅游","company_name":"云南旅游股份有限公司","registered_address":"云南省昆明市白龙路世博园","lng":"102.75974229498155","lat":"25.075155429303965","stock_exchange":"SZ"},{"stock_code":"002060","stock_name":"粤水电","company_name":"广东水电二局股份有限公司","registered_address":"广东省广州市增城区新塘镇广深大道西1号1幢水电广场A-1商务中心20层","lng":"113.60828125832904","lat":"23.127414048064807","stock_exchange":"SZ"},{"stock_code":"002061","stock_name":"浙江交科","company_name":"浙江交通科技股份有限公司","registered_address":"浙江省江山市景星东路38号","lng":"118.63810839066109","lat":"28.72445115352994","stock_exchange":"SZ"},{"stock_code":"002062","stock_name":"宏润建设","company_name":"宏润建设集团股份有限公司","registered_address":"浙江省象山县丹城镇建设东路262号","lng":"121.88498140546386","lat":"29.484258479775274","stock_exchange":"SZ"},{"stock_code":"002063","stock_name":"远光软件","company_name":"远光软件股份有限公司","registered_address":"广东省珠海市港湾大道科技一路3号","lng":"113.5678538605781","lat":"22.37947109342903","stock_exchange":"SZ"},